name,prefecture,city,lv01Nm,link,hyoka,comi,yado,onsen_num,dai,roten,sauna,kinen,kokyu,tanjun,enka,tansan,iou,housya,ryusan,sansei,gantetsu,nisan,youso,latitude,longitude,都道府県名,所在地,東経(゜),東経(′),東経(″),北緯(゜),北緯(′),北緯(″),標高(ｍ),水源種別,利用目的,井戸深度,採水標高,気温,水温,湧出量,水質(外観臭味),pH,RpH,Rn(マッヘ),比重,密度,蒸発残留物,電気伝導度,水比抵抗,EH,KMnO4消費,H+,Li+,Na+,K+,Rb+,Cs+,NH4+,Mg2+,Ca2+,Sr2+,Ba2+,Al3+,Mn2+,Fe2+,Fe3+,T-Fe,Cu2+,Zn2+,Pb2+,Si4+,F−,Cl−,Br−,I−,OH−,NO2−,NO3−,HS−,S2O32−,HSO4−,SO42−,SO32−,H2PO4−,HPO42−,PO43−,HCO3−,CO32−,HSiO3−,SiO32−,BO2−,H2SO4,H3PO4,HAsO2,AsO2-,SiO2,H2SiO3,HBO2,dis.O2,free H2S,free CO2,T-CO2,T-As,T-Hg,T-P,T-B,単位,調査日,文献名
箱根温泉,神奈川県,箱根町,仙石原,http://www.hakone-ryokan.or.jp,4.22,78705,234,212,150,146,39,205,45,True,True,True,True,True,True,True,False,False,False,35.262245,139.012143,神奈川県,信玄館,139.0,3.0,10.0,35.0,26.0,30.0,0,井戸,温泉・鉱泉,0,0,0,32.9,0,0,9.93,7.75,0,0,0,528.6,0,0,0,0,0,0.088,153.0,1.72,0,0,0,0.48200000000000004,19.9,0,0,0.068,0,0.15,0,0,0,0,0,0,0,44.57,0,0,1.45,0,0,0,0,0,260,0,0,0,0,32.6,1.64,0,0,0,0,0,0,0,0,0,1.319,0.446,0,0,0,0,0,0,0,0,1963-09-27 00:00:00,"丹沢山地の温泉鉱泉.神奈川県温研報告,1964"
由布院温泉,大分県,由布市,湯布院町川上,http://www.yufuin.gr.jp,4.52,22264,139,134,45,97,3,130,21,True,True,True,True,True,True,False,True,False,False,33.2574025,131.3279616,大分県,山香町,131.0,29.0,46.0,33.0,28.0,14.0,0,不明,温泉・鉱泉,0,0,0,13.3,0,0,5.83,0.0,0,0,0,0.0,0,0,0,0,0,0,33.0,5.4,0,0,0,12.0,99.5,0,0,0,0,0,0,0,0,0,0,0,0,17.0,0,0,0,0,0,0,0,0,256.0,0,0,0,0,59.1,0,0,0,0,0,0,0,0,56.3,0,0,0.0,0,0,0,0,0,0,0,0,1977-11-27 00:00:00,"国東半島の温鉱泉の化学組成,大分県温泉調査研究会報告第33号,1982"
伊豆高原温泉,静岡県,伊東市,八幡野,,4.52,22918,135,133,24,77,9,129,21,True,True,False,False,True,True,False,False,False,False,34.8813335,139.1226735,静岡県,熱海市,139.0,4.0,13.0,35.0,5.0,52.0,0,井戸,温泉・鉱泉,300.0,0,0,63.0,0,0,8.0,0.0,0,0,0,9300.0,0,0,0,0,0,0,555.0,15.1,0,0,0,1.7,980.6,0,0,0.6,0,0,0,0.7,0,0,0,0,0,2155.8,0,0,0,0,0,0,0,0,629.2,0,0,0,0,21.4,0,0,0,0,0,0,0,0,0,0,8.2,0.0,0,0,0,0,0,0,0,0,1964,"熱海温泉の熱水系について,地調月報,1969"
別府温泉郷,大分県,別府市,観海寺,http://www.gokuraku-jigoku-beppu.com/,4.25,54139,126,117,62,75,24,114,11,True,True,True,True,True,True,True,True,False,False,33.3180208,131.4819999,大分県,0,131.0,35.0,22.0,33.0,36.0,9.0,0,不明,温泉・鉱泉,0,0,0,33.8,0,0,7.41,0.0,0,0,0,0.0,0,0,0,0,0,0,460.0,1.4,0,0,0,5.2,313.0,0,0,0,0,0,0,0,0,0,0,0,0,17.4,0,0,0,0,0,0,0,0,720.0,0,0,0,0,75.6,0,0,0,0,0,0,0,0,47.0,0,0,0.0,0,0,0,0,0,0,0,0,1977-11-27 00:00:00,"国東半島の温鉱泉の化学組成,大分県温泉調査研究会報告第33号,1982"
草津温泉,群馬県,草津町,大字草津,http://www.kusatsu-onsen.ne.jp,4.30,34133,121,115,53,37,8,110,8,False,True,True,True,True,True,True,False,False,False,36.6212737,138.5966323,群馬県,高半,138.0,59.0,10.0,36.0,48.0,30.0,0,不明,温泉・鉱泉,0,0,0,61.0,0,0,8.3,0.0,0,0,0,0.0,0,0,0,0,0,0,0.0,0,0,0,0,0,56,0,0,0,0,0,0,0,0,0,0,0,0,140,0,0,0,0,0,0,0,0,115,0,0,0,0,22,1.5,0,0,0,0,0,0,0,0,0,0,0.0,0,0,0,0,0,0,0,0,0,"本邦諸温泉の地質学的研究,地調報告,1962"
白馬八方温泉,長野県,白馬村,大字北城,http://hakuba-happo-onsen.jp,4.31,8239,123,114,49,27,15,113,6,True,True,True,False,True,False,False,False,False,False,36.6973871,137.869827,長野県,姫川温泉群,137.0,58.0,50.0,36.0,51.0,40.0,0,湧泉,温泉・鉱泉,0,0,0,47,0,0,7.3,0.0,0,0,0,1856.0,0,0,0,0,0,0,0.0,0,0,0,0,13.2,44.2,0,0,0,0,0,0,0,0,0,0,0,0,59.5,0,0,0,0,0,0,0,0,1.6,0,0,0,0,2074.0,0,0,0,0,0,0,0,0,0,96.8,0,0.0,0,8.8,0,0,0,0,0,0,0,"本邦諸温泉の地質学的研究,地調報告,1962"
那須温泉郷,栃木県,那須町,大字高久丙,http://www.nasuonsen.com,4.19,35195,113,101,45,61,14,101,9,True,True,True,True,True,True,True,False,False,False,37.0834479467773,140.01416015625,栃木県,那須郡那須町,140.0,0.0,16.0,37.0,6.0,16.0,0,不明,温泉・鉱泉,0,0,0,34.0,559.0,0,7.6,0.0,0,0,0,0.0,0,0,0,0,0,0,54.6,18.2,0,0,0,24.5,53.3,0,0,0,0,0,0,0,0,0,0,0,0,16.4,0,0,0,0,0,0,0,0,163.0,0,0,0,0,133.0,0,0,0,0,0,0,0,0,137.0,0,0,0.0,0,0,0,0,0,0,0,0,0,"新潟地熱資源図説明書,地質調査所,1993"
奥飛騨温泉郷,岐阜県,高山市,奥飛騨温泉郷平湯,http://www.okuhida.or.jp/,4.31,13414,110,96,54,91,6,87,3,True,True,True,True,False,False,False,False,False,False,36.262067331543,137.570129394531,岐阜県,0,137.0,34.0,33.0,36.0,16.0,51.0,0,湧泉,温泉・鉱泉,0,0,0,48.0,0,0,7.7,0.0,0,0,0,0.0,0,0,0,0,0,0,68.05,8.21,0,0,0,0.73,15.23,0,0,0,0,0,0,0,0,0,0,0,0,72.32,0,0,0,0,0,0,0,0,12.97,0,0,0,0,95.8,0,0,0,0,0,0,0,0,0,0,0,0.0,0,0,0,0,0,0,0,0,1977.7.19.,"焼岳地域の温泉水の同位体組成，化学組成および地下温度について,日本地熱学会誌,1980"
湯沢温泉郷,新潟県,湯沢町,大字土樽,http://www.yuzawaonsen.jp,4.19,18139,92,83,49,26,14,80,2,True,True,True,True,True,True,False,False,False,False,36.7905895,138.7919187,新潟県,南魚沼郡六日町,138.0,58.0,4.0,37.0,2.0,58.0,0,不明,温泉・鉱泉,200,0,0,26.9,1640.0,0,7.5-8.5,0.0,0,0,0,0.0,0,0,0,0,0,0,0.0,0,0,0,0,0,0,0,0,0,0,0,0,0,0,0,0,0,0,0,0,0,0,0,0,0,0,0,0,0,0,0,0,0,0,0,0,0,0,0,0,0,0,0,0,0.0,0,0,0,0,0,0,0,0,0,"新潟地熱資源図説明書,地質調査所,1993"
妙高高原温泉郷,新潟県,妙高市,大字関川,http://myoko-note.jp/spa/,4.23,5129,97,81,44,15,3,80,2,True,True,True,True,True,True,False,True,False,False,36.862849,138.1790601,新潟県,中頸城郡板倉町,138.0,18.0,54.0,37.0,0.0,45.0,0,不明,温泉・鉱泉,0,0,0,12.0,0,0,0,0.0,0,0,0,0.0,0,0,0,0,0,0,0.0,0,0,0,0,0,0,0,0,0,0,0,0,0,0,0,0,0,0,0,0,0,0,0,0,0,0,0,0,0,0,0,0,0,0,0,0,0,0,0,0,0,0,0,0,0.0,0,0,0,0,0,0,0,0,0,"新潟地熱資源図説明書,地質調査所,1993"
熱海温泉,静岡県,熱海市,西熱海町一丁目,http://www.atamispa.com,4.12,40267,77,71,50,49,18,70,15,True,True,True,False,True,True,False,True,False,False,35.1169364,139.073482,静岡県,0,139.0,5.0,30.0,35.0,6.0,30.0,0,不明,温泉・鉱泉,0,0,0,67.3,0,0,8.0,0.0,0,0,0,0.0,0,0,0,0,0,0,0.0,0,0,0,0,0,3380.0,0,0,0,0,0,0,0,0,0,0,0,0,8586.0,0,0,0,0,0,0,0,0,1053,0,0,0,0,31,0,0,0,0,0,0,0,0,0,0,0,0.0,0,0,0,0,0,0,0,0,0,"食塩泉中のストロンチウム濃度およびSr/Ca比の変動について,温泉科学,1986"
片品温泉郷,群馬県,片品村,大字戸倉,http://www.oze-info.com/onsen/index.html,4.33,2611,72,65,37,7,3,63,0,True,True,False,True,False,False,False,False,False,False,36.807685,139.235485,群馬県,利根郡片品村,139.0,19.0,58.0,36.0,51.0,52.0,0,不明,温泉・鉱泉,0,0,0,38.5,0,0,0,6.2,0,0,0,0.0,0,0,0,0,0,0,734.5,18.8,0,0,0,163,96.2,0,0,0,0,0,0,0,0,0,0,0,0,0,0,0,0,0,0,0,0,0,40,0,0,0,0,1735,0,0,0,0,0,0,0,0,52.4,0,0,0.0,0,0,0,0,0,0,0,mg/kg,0,"新潟地熱資源図説明書,地質調査所,1993"
湯田中渋温泉郷,長野県,山ノ内町,大字平穏,http://www.yudanaka-onsen.info,4.33,11441,75,65,39,33,7,61,5,True,True,True,True,True,True,False,True,False,False,36.7405865,138.4161556,長野県,下水内郡栄村,138.0,38.0,5.0,36.0,51.0,4.0,0,不明,温泉・鉱泉,0,0,0,45,18.0,0,6.7,0.0,0,0,0,0.0,0,0,0,0,0,0,5664.0,329.4,0,0,0,284.7,1829.0,0,0,0,0,0,0,0,0,0,0,0,0,11180.0,0,0,0,0,0,0,0,0,1202.0,0,0,0,0,1577.0,0,0,0,0,0,0,0,0,101.5,0,0,0.0,0,0,0,0,0,0,0,0,0,新潟地熱資源図説明書，地質調査所，1993
鳥羽温泉郷,三重県,鳥羽市,相差町,http://www.toba-onsen.com,4.24,36938,73,64,59,46,12,70,6,True,True,True,False,False,True,False,False,False,False,34.389597,136.903956,三重県,鈴鹿市国府町前が谷,136.0,30.0,55.0,34.0,51.0,5.0,0,井戸,温泉・鉱泉,1500.0,0,25.0,41.2,510.0,0,8.3,0.0,0,0.9989,0,641.7,1100.0,0,0,0,0,0,246.6,2.9530000000000003,0,0,0.888,1.942,7.207999999999999,0,0,0,0.0,0.14300000000000002,0,0,0,0,0,0,0.43,161.5,0,0,0.034,0,0,0,0,0,0.0,0,0,0,0,408.7,2.3280000000000003,0,0,0,0,0,0,0,0,0,0,0.0,0.024,4.727,0,0,0,0,0,0,1972.9.28.,"濃尾平野の超深層地下水について（第２報）,愛知県衛研所報,1974"
城崎温泉,兵庫県,豊岡市,城崎町今津,http://www.kinosaki-spa.gr.jp,4.24,17015,67,63,31,22,6,62,6,True,True,False,True,False,True,False,False,False,False,35.6289809,134.7981048,兵庫,0,134.0,37.0,42.0,35.0,36.0,25.0,0,不明,温泉・鉱泉,0,0,0,0,0,0,7.4,0.0,0,0,0,0.0,2860.0,0,0,0,0,0.24,346.0,8.0,0,0,0,1.0,197.0,0,0,0.04,0.07,0.05,0,0,0,0,0,0,4.11,612.0,1.98,0.05,0,0,0,0,0,0,343.0,0,0,0,0,0,0,0,0,0,0,0,0,0,57.0,0,0,0.0,<0.5,0,10.8,0.08199999999999999,0,0,0.87,0,1995.11.17.,"兵庫県北西部浜坂周辺温泉の成因,温泉科学,1996"
白浜温泉,和歌山県,白浜町,－,http://www.nanki-shirahama.com/index.php,4.10,30855,61,58,36,25,11,58,3,False,True,True,True,True,False,False,False,False,False,33.6829695837402,135.347747802734,和歌山県,湯元,135.0,33.0,47.0,33.0,57.0,4.0,0,不明,温泉・鉱泉,0,0,10.0,45,0,0,8,0.0,0,0,0,0.0,0,0,0,0,0,0,932,102,0,0,0,1.1,8,0,0,0,0,0,0,0,0,0,0,0,0,35.3,0,0,0,0,0,0,0,0,9.9,0,0,0,0,1046.8,0,0,0,0,0,0,0,0,0,0,0,0.0,1.5,0,0,0,0,0,0,0,0,"紀伊半島中南部地方の温泉群について,地調月報,1958"
湯河原温泉,神奈川県,熱海市,泉,http://www.yugawara.or.jp,4.16,13361,61,55,40,38,9,51,11,True,True,False,False,True,True,False,False,False,False,35.1422209875488,139.084823608398,神奈川県,福住湧泉,139.0,6.0,10.0,35.0,13.0,40.0,0,坑道,温泉・鉱泉,0,0,0,44.5,172,0,7.8,0.0,0,0,0,530.0,0,0,0,0,0,0,134.0,1.59,0,0,0,0.38,22.3,0,0,0,0,0,0,0,0,0,0,0,0,149.0,0,0,0,0,0,0,0,0,157,0,0,0,0,39.5,0,0,0,0,0,0,0,0,0,0,0,0.0,0,0,0,0,0,0,0,0,1981.10.14.,"地下水中のラドンの連続観測,神奈川県温泉地学研究所報告,1982"
乗鞍高原温泉,長野県,松本市,安曇,http://www.spa-norikura.com,4.42,3914,64,55,12,36,2,52,0,True,False,True,True,True,False,True,False,False,False,36.1250811,137.649817,長野県,東御殿の湯,137.0,59.0,40.0,36.0,15.0,40.0,0,不明,温泉・鉱泉,0,0,0,46,0,0,8.0,0.0,0,0,0,0.0,0,0,0,0,0,0,0,0,0,0,0,0,41.5,0,0,0,0,0,0,0,0,0,0,0,0,38.0,0,0,0,0,0,0,0,0,190.9,0,0,0,0,12.0,3.0,0,0,0,0,0,0,0,0,0,0,0.0,0,0,0,0,0,0,0,0,1955.3.,"長野県浅間温泉調査報告,地調月報,1957"
加賀温泉郷,石川県,小松市,粟津町,http://www.tabimati.net/,4.10,34392,57,53,50,50,16,52,6,True,True,False,False,True,True,False,False,False,False,36.288743,136.360931,石川県,0,136.0,46.0,21.0,36.0,42.0,10.0,0,井戸,温泉・鉱泉,298.0,0,0,25.6,10.0,0,7.4,0.0,0,0,0,0.0,0,0,0,0,0,0,17.5,15.0,0,0,3.37,11.9,22.0,0,0,0,0,0,0,0,0,0,0,0,0,12.3,0,0,0,0,0,0,0,0,4.6,0,0,0,0,185.0,0.0,0,0,0,0,0,0,0,0,0,0,0.17,0,0,0,0,0,0,0,0,0,"能登半島のヘリウム資源調査研究,地調月報,1974"
伊東温泉,静岡県,伊東市,末広町,http://www.ito.or.jp,4.23,29583,51,49,33,32,9,47,9,True,True,False,False,False,True,False,False,False,False,34.9722952,139.088234,静岡県,熱海市,139.0,4.0,13.0,35.0,5.0,52.0,0,井戸,温泉・鉱泉,300.0,0,0,63.0,0,0,8.0,0.0,0,0,0,9300.0,0,0,0,0,0,0,555.0,15.1,0,0,0,1.7,980.6,0,0,0.6,0,0,0,0.7,0,0,0,0,0,2155.8,0,0,0,0,0,0,0,0,629.2,0,0,0,0,21.4,0,0,0,0,0,0,0,0,0,0,8.2,0.0,0,0,0,0,0,0,0,0,1964,"熱海温泉の熱水系について,地調月報,1969"
鉄輪温泉,大分県,別府市,御幸,http://www.kannawaryokan.com,4.22,8971,53,49,19,32,12,47,3,True,True,True,True,True,True,True,True,False,False,33.3159843,131.4777943,大分県,0,131.0,35.0,22.0,33.0,36.0,9.0,0,不明,温泉・鉱泉,0,0,0,33.8,0,0,7.41,0.0,0,0,0,0.0,0,0,0,0,0,0,460.0,1.4,0,0,0,5.2,313.0,0,0,0,0,0,0,0,0,0,0,0,0,17.4,0,0,0,0,0,0,0,0,720.0,0,0,0,0,75.6,0,0,0,0,0,0,0,0,47.0,0,0,0.0,0,0,0,0,0,0,0,0,1977-11-27 00:00:00,"国東半島の温鉱泉の化学組成,大分県温泉調査研究会報告第33号,1982"
石和温泉,山梨県,笛吹市,石和町市部,http://www.isawaonsen.or.jp,4.11,19624,52,47,41,39,13,45,1,True,False,False,True,False,True,False,False,False,False,35.658363,138.652243,山梨県,北巨摩郡須玉町増富,138.0,32.0,40.0,35.0,51.0,50.0,0,不明,温泉・鉱泉,0,0,23.0,24,3.9,0,6.01,0.0,0,0,0,0.0,0,0,0,0,0,0,0,0,0,0,0,0,0,0,0,0,0,0,0,0,0,0,0.05,0,0,2666,0,0,0,0,0,0,0,0,0,0,0,0,0,0,0,0,0,0,0,0,0,0,0,0,0,0.0,0,0,0,0,0,0,0,0,1971-08-15 00:00:00,山梨県増富温泉の微量成分の化学的研究（Ｉ），山梨大学教育学部研究報告，1973
塩原温泉郷,栃木県,那須塩原市,塩原,http://www.siobara.or.jp/,4.27,14550,53,47,33,35,5,42,3,True,True,True,True,False,True,True,False,False,False,36.9886993,139.806006,栃木県,那須郡那須町,140.0,0.0,36.0,37.0,5.0,15.0,0,不明,温泉・鉱泉,0,0,0,63.7,845.0,0,2.3,0.0,0,0,0,0.0,0,0,0,0,0,0,28.0,7.4,0,0,0,19.6,66.4,0,0,0,0,0,0,0,0,0,0,0,0,99.0,0,0,0,0,0,0,0,0,667.0,0,0,0,0,0,0,0,0,0,0,0,0,0,208.0,0,0,0.0,0,0,0,0,0,0,0,0,0,"新潟地熱資源図説明書,地質調査所,1993"
仙石原温泉,神奈川県,箱根町,仙石原,http://www.sengokuhara-onsen.com,4.24,13689,51,46,31,29,6,45,11,True,True,True,True,True,True,True,False,False,False,35.262245,139.012143,神奈川県,信玄館,139.0,3.0,10.0,35.0,26.0,30.0,0,井戸,温泉・鉱泉,0,0,0,32.9,0,0,9.93,7.75,0,0,0,528.6,0,0,0,0,0,0.088,153.0,1.72,0,0,0,0.48200000000000004,19.9,0,0,0.068,0,0.15,0,0,0,0,0,0,0,44.57,0,0,1.45,0,0,0,0,0,260,0,0,0,0,32.6,1.64,0,0,0,0,0,0,0,0,0,1.319,0.446,0,0,0,0,0,0,0,0,1963-09-27 00:00:00,"丹沢山地の温泉鉱泉.神奈川県温研報告,1964"
富士河口湖温泉,山梨県,富士河口湖町,船津,http://www.fujisan.ne.jp,4.07,24039,51,46,34,28,13,50,7,True,True,True,False,True,True,False,False,False,False,35.496232,138.75507,山梨県,石和地区No.９.,138.0,39.0,2.0,35.0,39.0,47.0,0,不明,温泉・鉱泉,146,0,0,47.2,0,0,8.6,0.0,0,0,0,0.0,0,0,0,0,0,0,222,0,0,0,0,0,37,0,0,0,0,0,0,0,0,0,0,0,0,296,0,0,0,0,0,0,0,0,150,0,0,0,0.368,32,0.8,0,0,0,0,0,0,0,0,0,0,0.0,0,0,0,0,0,0,0,0,1962,山梨県甲府盆地の温泉の地球化学的研究－定期観測の温泉－，東邦大学教養紀要，1991
強羅温泉,神奈川県,箱根町,強羅,http://hakone-gora.com,4.24,19287,48,44,28,23,7,42,9,True,True,True,True,True,True,True,False,False,False,35.2513346,139.0490245,神奈川県,信玄館,139.0,3.0,10.0,35.0,26.0,30.0,0,井戸,温泉・鉱泉,0,0,0,32.9,0,0,9.93,7.75,0,0,0,528.6,0,0,0,0,0,0.088,153.0,1.72,0,0,0,0.48200000000000004,19.9,0,0,0.068,0,0.15,0,0,0,0,0,0,0,44.57,0,0,1.45,0,0,0,0,0,260,0,0,0,0,32.6,1.64,0,0,0,0,0,0,0,0,0,1.319,0.446,0,0,0,0,0,0,0,0,1963-09-27 00:00:00,"丹沢山地の温泉鉱泉.神奈川県温研報告,1964"
赤倉温泉,新潟県,妙高市,大字赤倉,http://www.akakura.gr.jp,4.28,2654,52,44,25,6,2,44,0,True,True,True,False,True,True,False,False,False,False,36.8867341,138.1801624,新潟県,中頸城郡板倉町,138.0,18.0,54.0,37.0,0.0,45.0,0,不明,温泉・鉱泉,0,0,0,12.0,0,0,0,0.0,0,0,0,0.0,0,0,0,0,0,0,0,0,0,0,0,0,0,0,0,0,0,0,0,0,0,0,0,0,0,0,0,0,0,0,0,0,0,0,0,0,0,0,0,0,0,0,0,0,0,0,0,0,0,0,0,0.0,0,0,0,0,0,0,0,0,0,"新潟地熱資源図説明書,地質調査所,1993"
河津温泉郷,静岡県,河津町,見高,http://www.kawazu-onsen.com,4.56,4116,51,44,16,28,4,39,3,True,True,False,False,True,True,False,False,False,False,34.7946071,138.9330896,静岡県,熱海市,139.0,4.0,13.0,35.0,5.0,52.0,0,井戸,温泉・鉱泉,300.0,0,0,63.0,0,0,8.0,0.0,0,0,0,9300.0,0,0,0,0,0,0,555.0,15.1,0,0,0,1.7,980.6,0,0,0.6,0,0,0,0.7,0,0,0,0,0,2155.8,0,0,0,0,0,0,0,0,629.2,0,0,0,0,21.4,0,0,0,0,0,0,0,0,0,0,8.2,0.0,0,0,0,0,0,0,0,0,1964,"熱海温泉の熱水系について,地調月報,1969"
水上温泉郷,群馬県,みなかみ町,湯原,http://www.minakami-onsen.com,4.34,15546,49,44,25,26,4,43,4,True,False,True,True,True,True,False,False,False,False,36.783736,138.960023,群馬県,利根郡水上町,139.0,5.0,8.0,36.0,52.0,9.0,0,不明,温泉・鉱泉,0,0,0,80.0,750.0,0,7.6,0.0,0,0,0,0.0,0,0,0,0,0,0,138,9.5,0,0,0,4.4,26.2,0,0,0,0,0,0,0,0,0,0,0,0,133,0,0,0,0,0,0,0,0,175,0,0,0,0,91.5,0,0,0,0,0,0,0,0,0,0,0,0.0,0,0,0,0,0,0,0,0,0,"新潟地熱資源図説明書,地質調査所,1993"
松崎温泉郷,静岡県,松崎町,江奈,http://izumatsu-ryokan.jp/,4.23,2657,46,42,15,14,0,35,0,True,True,True,False,True,True,False,False,False,False,34.738536,138.762464,静岡県,根の湯,138.0,55.0,47.0,34.0,58.0,3.0,0,井戸,温泉・鉱泉,0,0,0,0,0,0,8.2,0.0,0,0,0,763.3560000000001,0,0,0,0,0,0,171.8,3.749,0,0,0,1.383,50.71,0,0,0,0,0,0,0,0,0,0,0,0,186.8,0,0,0,0,0,0,0,0,142.8,0,0,0,0,123,1.2429999999999999,0,0,0,0,0,0,0,0,0,0,0.0,0,0,0,0,0,0,0,0,1952,"伊豆修善寺温泉地域の地質及び温泉,地質学雑誌,1959"
伊香保温泉,群馬県,渋川市,伊香保町伊香保,http://www.ikaho-kankou.com,4.13,28488,43,41,34,30,10,41,3,True,True,True,True,True,True,False,True,False,False,36.4916224,138.9151614,群馬県,利根郡水上町,139.0,0.0,56.0,36.0,47.0,42.0,0,不明,温泉・鉱泉,0,0,0,25.7,133.0,0,9.4,0.0,0,0,0,0.0,0,0,0,0,0,0,21.8,0.7,0,0,0,0.2,0,0,0,0,0,0,0,0,0,0,0,0,0,2.1,0,0,0,0,0,0,0,0,30.3,0,0,0,0,42.7,0,0,0,0,0,0,0,0,14.3,0,0,0.0,0,0,0,0,0,0,0,0,0,"新潟地熱資源図説明書,地質調査所,1993"
下呂温泉,岐阜県,下呂市,湯之島,http://www.gero-spa.or.jp,4.16,24715,41,41,33,27,7,39,7,True,False,False,True,False,False,False,False,False,False,35.805407,137.239053,岐阜県,御岳地域,137.0,27.0,13.0,35.0,54.0,53.0,0,湧泉,温泉・鉱泉,0,0,0,42.0,0,0,6.4,0.0,0,0,0,2350.0,0,0,-200.0,0,0,0,389.0,73.0,0,0,0,0,55.0,0,0,0,0,0,0,0,0,0,0,0,0,346.0,0,0,0,0,0,0,0,0,0,0,0,0,0,0,0,0,0,0,0,0,0,0,0,0,0,0.0,0,0,0,0,0,0,0,0,1977.10.,"中部地方における温泉水中のホウ素の地球化学的研究（第１報）,地球化学,1983"
越後湯沢温泉,新潟県,湯沢町,大字湯沢,https://www.snow-country-tourism.jp/,4.25,11302,43,40,22,17,11,37,1,True,True,False,True,False,True,False,False,False,False,36.93795,138.80853,新潟県,南魚沼郡六日町,138.0,58.0,4.0,37.0,2.0,58.0,0,不明,温泉・鉱泉,200,0,0,26.9,1640.0,0,7.5-8.5,0.0,0,0,0,0.0,0,0,0,0,0,0,0,0,0,0,0,0,0,0,0,0,0,0,0,0,0,0,0,0,0,0,0,0,0,0,0,0,0,0,0,0,0,0,0,0,0,0,0,0,0,0,0,0,0,0,0,0.0,0,0,0,0,0,0,0,0,0,"新潟地熱資源図説明書,地質調査所,1993"
別府温泉,大分県,別府市,中央町,http://www.gokuraku-jigoku-beppu.com/,4.12,27369,39,39,30,25,7,39,3,True,True,True,False,True,False,False,False,False,False,33.2788746,131.502199,大分県,0,131.0,40.0,15.0,33.0,14.0,28.0,0,不明,温泉・鉱泉,0,0,0,45.1,0,0,7.73,0.0,0,0,0,0.0,0,0,0,0,0,0,1970.0,288.5,0,0,0,115.7,451.2,0,0,0,0,0,0,0,0,0,0,0,0,4360.0,0,0,0,0,0,0,0,0,0,0,0,0,0,210.0,0,0,0,0,0,0,0,0,0,0,0,0.0,0,0,0,0,0,0,0,0,1992-11-05 00:00:00,"大分市街地の温泉開発の経過と現況,大分県温泉調査研究会報告第48号,1997"
箱根湯本温泉,神奈川県,箱根町,湯本,http://www.hakoneyumoto.com,4.14,23639,42,38,33,36,12,38,7,True,True,False,True,True,True,False,False,False,False,35.2255759375,139.096145629883,神奈川県,松田町寄１番１２３,139.0,9.0,40.0,35.0,21.0,40.0,134.0,井戸,温泉・鉱泉,700.0,0,0,24.3,74.88,0,6.4,0.0,0,0,0,6029.0,0,0,0,0,0,0.06,782.0,5.59,0,0,0,0.17,1245.0,0,0,0,0.14,1.47,0,0,0,0,0,0,0,2595.0,0,0,0,0,0,0,0,0,1139,0,0,0,0,9.8,0,0,0,0,0,0,0,0,0,0,9.1,0.0,0,4.05,0,0,0,0,0,0,1974.9.11.,"松田町寄（やどろぎ）の塩化カルシウム型温泉（冷鉱泉）,神奈川県温研報告,1976"
山中湖温泉,山梨県,山中湖村,山中,,4.30,3020,41,38,18,12,5,41,3,True,False,False,False,False,False,False,False,False,False,35.421711,138.902692,山梨県,石和地区No.９.,138.0,39.0,2.0,35.0,39.0,47.0,0,不明,温泉・鉱泉,146,0,0,47.2,0,0,8.6,0.0,0,0,0,0.0,0,0,0,0,0,0,222,0,0,0,0,0,37,0,0,0,0,0,0,0,0,0,0,0,0,296,0,0,0,0,0,0,0,0,150,0,0,0,0.368,32,0.8,0,0,0,0,0,0,0,0,0,0,0.0,0,0,0,0,0,0,0,0,1962,山梨県甲府盆地の温泉の地球化学的研究－定期観測の温泉－，東邦大学教養紀要，1991
鬼怒川温泉,栃木県,日光市,鬼怒川温泉滝,,4.15,33993,39,37,32,33,17,37,7,True,True,False,False,True,False,False,False,False,False,36.813718,139.709392,栃木県,那須郡那須町,139.0,57.0,10.0,37.0,3.0,51.0,0,不明,温泉・鉱泉,600.0,0,0,30.1,222.0,0,8,0.0,0,0,0,0.0,0,0,0,0,0,0,83.6,7.9,0,0,0,7.3,10.6,0,0,0,0,0,0,0,0,0,0,0,0,24.2,0,0,0,0,0,0,0,0,65.0,0,0,0,0,120.0,0,0,0,0,0,0,0,0,88.0,0,0,0.0,0,0,0,0,0,0,0,0,0,"新潟地熱資源図説明書,地質調査所,1993"
日光温泉,栃木県,日光市,所野,,4.25,9285,39,37,15,21,3,38,5,True,False,False,False,False,False,False,False,False,False,36.751159,139.608915,栃木県,那須郡塩原町,139.0,51.0,49.0,36.0,58.0,0.0,0,不明,温泉・鉱泉,130.0,0,0,56.8,169.0,0,7.9,0.0,0,0,0,0.0,0,0,0,0,0,0,297.0,13.0,0,0,0,0.5,135.0,0,0,0,0,0,0,0,0,0,0,0,0,40.4,0,0,0,0,0,0,0,0,851.0,0,0,0,0,74.0,0,0,0,0,0,0,0,0,74.0,0,0,0.0,0,0,0,0,0,0,0,0,0,"新潟地熱資源図説明書,地質調査所,1993"
有馬温泉,兵庫県,神戸市北区,有馬町,http://www.arima-onsen.com,4.22,21059,40,37,33,26,15,37,13,True,True,False,False,True,True,False,True,False,False,34.7945649,135.2466489,兵庫,0,135.0,26.0,35.0,34.0,56.0,51.0,0,井戸,温泉・鉱泉,0,0,0,15.1,0,0,6.2,0.0,0,0,0,0.0,0,0,0,0,0,2.21,735.0,5.37,0,0,0,73.5,688.0,0,0,0,0,0,0,0.9,0,0,0,0,2.7,912.0,1.41,0,0,0,0,0,0,0,0.0,0,0,0,0,2680.0,0,0,0,0,0,0,0,0,83.2,0,18,0.0,0,2910.0,0,0,0,0,0,0,1981.11.29.,"有馬のNa-Ca-Cl-HCO3タイプの水の地球化学的特徴,地球化学ジャーナル,1985"
土肥温泉,静岡県,伊豆市,土肥,http://www.toi-annai.com,4.37,9945,37,35,17,21,4,30,3,True,True,False,False,True,True,False,False,False,False,34.911947,138.791034,静岡県,三養荘№1,138.0,55.0,32.0,35.0,1.0,38.0,0,不明,温泉・鉱泉,0,0,0,53.0,0,0,8.9,0.0,0,0,0,0.0,0,0,0,0,0,0,0,0,0,0,0,1.9,16.0,0,0,0,0,0,0,0,0,0,0,0,0,93.6,0,0,0,0,0,0,0,0,186,0,0,0,0,32.9,9.4,0,0,0,0,0,0,0,0,0,0,0.0,0,0,0,0,0,0,0,0,0,"本邦諸温泉の地質学的研究,地調報告,1962"
飛騨高山温泉,岐阜県,高山市,西之一色町二丁目,,4.28,22746,36,35,28,21,9,35,5,True,True,True,False,True,False,False,False,False,False,36.1420085,137.2451486,岐阜県,0,137.0,31.0,50.0,36.0,14.0,10.0,0,不明,温泉・鉱泉,0,0,0,97.0,0,0,0,0.0,0,0,0,0.0,0,0,0,0,0,0,285.4,30.84,0,0,0,7.7010000000000005,5.553,0,0,0,0,0,0,0,0,0,0,0,0,286.9,0,0,0.17,0,0,0,0,0,39.56,0,0,0,0,299.3,17.64,0,0,4.907,0,0,0,0,0,0,8.384,0.0,0.027000000000000003,0.722,0,0,0,0,0,0,1973-10-05 00:00:00,奥飛騨温泉郷でのラドン測定と保健物理学的考察，温泉科学，1979
伊豆長岡温泉,静岡県,伊豆の国市,古奈,http://izuspa.com,4.21,17313,35,34,33,31,9,34,2,True,False,False,True,False,False,False,False,False,False,35.0311334,138.9322317,静岡県,熱海市,139.0,4.0,13.0,35.0,5.0,52.0,0,井戸,温泉・鉱泉,300.0,0,0,63.0,0,0,8.0,0.0,0,0,0,9300.0,0,0,0,0,0,0,555.0,15.1,0,0,0,1.7,980.6,0,0,0.6,0,0,0,0.7,0,0,0,0,0,2155.8,0,0,0,0,0,0,0,0,629.2,0,0,0,0,21.4,0,0,0,0,0,0,0,0,0,0,8.2,0.0,0,0,0,0,0,0,0,0,1964,"熱海温泉の熱水系について,地調月報,1969"
南阿蘇温泉,熊本県,南阿蘇村,大字久石,http://minamiaso-onsen.jp,4.39,9791,40,34,13,16,8,35,3,True,False,True,True,True,True,True,False,False,False,32.929869,131.042581,熊本県,豊肥地域,131.0,5.0,50.0,33.0,4.0,10.0,0,井戸,温泉・鉱泉,0,0,0,42.1,0,0,6.5,0.0,0,0,0,0.0,0,0,0,0,0,0,128.0,33.2,0,0,0,28.0,59.8,0,0,0,0,0,0,0,0,0,0,0,0,155.0,0,0,0,0,0,0,0,0,124.0,0,0,0,0,106.0,0.0,0,0,0,0,0,0,0,148.0,0,0,0.0,0,0,0,0,0,0,0,mg/L,0,"地熱流体の化学に基づく豊肥地域熱水系の概念的モデル,地質調査所報告,1985"
飯坂温泉,福島県,福島市,飯坂町,http://www.iizaka.com,3.83,7750,38,33,27,10,3,33,0,True,False,False,False,False,True,False,False,False,False,37.8363234,140.4504103,福島県,福島県相馬郡新地町,140.0,56.0,50.0,37.0,50.0,33.0,0,井戸,温泉・鉱泉,240.0,0,0,21.4,223,0,8.1,0.0,0,0,0,0.0,0,0,0,0,0,0,66.5,3.0,0,0,0,0.3,0.9,0,0,0,0,0,0,0,0,0,0,0,0,12.5,0,0,0,0,0,0,0,0,9.6,0,0,0,0,172.3,0,0,0,0,0,0,0,0,51.5,0,0,0.0,0,0,0,0,0,0,0,0,0,新潟地熱資源図説明書，地質調査所，1993
蔵王温泉,山形県,山形市,蔵王温泉,http://www.zao-spa.or.jp,4.39,12052,37,32,19,21,5,32,1,False,True,False,True,True,True,True,True,False,False,38.164156,140.393245,山形県,御所山地区,140.0,32.0,50.0,38.0,24.0,40.0,0,湧泉,温泉・鉱泉,0,0,0,12,0,0,3.9,0.0,0,0,0,198.5,0,0,0,0,0,0,3.5,0.6,0,0,0,5.3,19.6,0,0,0,0,3.7,0,0,0,0,0,0,0,5.7,0,0,0,0,0,0,0,0,98.4,0,0,0,0,0,0,0,0,0,0,0,0,0,0,0,0,0.0,0,0,0,0,0,0,0,0,1966/8,山形県の温泉に関する研究（第１２報），山形県衛研所報，1969
塩原温泉,栃木県,那須塩原市,塩原,http://www.siobara.or.jp/,4.21,10416,36,32,21,23,3,27,1,True,True,True,False,False,True,False,False,False,False,36.9557312,139.8287983,栃木県,那須郡那須町,140.0,0.0,36.0,37.0,5.0,15.0,0,不明,温泉・鉱泉,0,0,0,63.7,845.0,0,2.3,0.0,0,0,0,0.0,0,0,0,0,0,0,28.0,7.4,0,0,0,19.6,66.4,0,0,0,0,0,0,0,0,0,0,0,0,99.0,0,0,0,0,0,0,0,0,667.0,0,0,0,0,0,0,0,0,0,0,0,0,0,208.0,0,0,0.0,0,0,0,0,0,0,0,0,0,"新潟地熱資源図説明書,地質調査所,1993"
四万温泉,群馬県,中之条町,大字四万,http://shimaonsen.com,4.31,11182,32,32,17,26,1,32,3,True,True,True,False,True,True,False,False,False,False,36.6765806,138.782647,群馬県,高半,138.0,59.0,10.0,36.0,48.0,30.0,0,不明,温泉・鉱泉,0,0,0,61.0,0,0,8.3,0.0,0,0,0,0.0,0,0,0,0,0,0,0,0,0,0,0,0,56,0,0,0,0,0,0,0,0,0,0,0,0,140,0,0,0,0,0,0,0,0,115,0,0,0,0,22,1.5,0,0,0,0,0,0,0,0,0,0,0.0,0,0,0,0,0,0,0,0,0,"本邦諸温泉の地質学的研究,地調報告,1962"
夕日ヶ浦温泉,京都府,京丹後市,網野町浜詰,,4.38,4042,32,31,23,19,0,30,9,True,False,False,False,False,False,False,False,False,False,35.6615157263184,134.966873168945,,,,,,,,,,,,,,,,,,,,,,,,,,,,,,,,,,,,,,,,,,,,,,,,,,,,,,,,,,,,,,,,,,,,,,,,,,,,,,,,,,,,,
新穂高温泉,岐阜県,高山市,奥飛騨温泉郷神坂,http://shinhotaka.com,4.37,2233,36,30,14,29,1,28,0,True,True,True,True,False,False,False,False,False,False,36.2542236,137.5467826,岐阜県,0,137.0,34.0,33.0,36.0,16.0,51.0,0,湧泉,温泉・鉱泉,0,0,0,48.0,0,0,7.7,0.0,0,0,0,0.0,0,0,0,0,0,0,68.05,8.21,0,0,0,0.73,15.23,0,0,0,0,0,0,0,0,0,0,0,0,72.32,0,0,0,0,0,0,0,0,12.97,0,0,0,0,95.8,0,0,0,0,0,0,0,0,0,0,0,0.0,0,0,0,0,0,0,0,0,1977.7.19.,"焼岳地域の温泉水の同位体組成，化学組成および地下温度について,日本地熱学会誌,1980"
遠刈田温泉,宮城県,不明,不明,http://togatta.jp,4.38,5693,30,29,17,16,4,28,3,True,True,True,True,True,True,False,True,False,False,38.108273996582,140.564270019531,宮城県,名取市増田,140.0,53.0,40.0,38.0,10.0,28.0,0,不明,温泉・鉱泉,0,0,0,36.2,0,0,7.5-8.5,0.0,0,0,0,0.0,0,0,0,0,0,0,0,0,0,0,0,0,0,0,0,0,0,0,0,0,0,0,0,0,0,0,0,0,0,0,0,0,0,0,0,0,0,0,0,0,0,0,0,0,0,0,0,0,0,0,0,0.0,0,0,0,0,0,0,0,0,0,秋田地熱資源図説明書，地質調査所，1996
道後温泉,愛媛県,松山市,道後鷺谷町,http://www.dogo.or.jp/,4.39,21486,29,29,20,18,4,29,3,True,False,False,False,False,False,False,False,False,False,33.851718,132.787413,愛媛,今治市長沢字芋尻甲517,132.0,56.0,46.03000000005296,34.0,3.0,22.17000000002827,0,井戸,温泉・鉱泉,500,0,27.9,25.4,206,0,8.4,0.0,0,0,0,487.1,0,0,0,0,0,0.215,181.9,3.2569999999999997,0,0,0,3.664,7.134,0,0,0,0,0,0,0,0,0,0,0,12.27,8.16,0,0,0.068,0,0,0,0,0,0.768,0,0,0,0,455.1,6.771,0,0,0,0,0,0,0,0,0,6.356,0.0,0,4.392,0,0,0,0,0,0,1975.6.16.,"昭和５０年度温水分析成績,愛媛衛研年報,1976"
黒川温泉,熊本県,南小国町,大字満願寺,http://www.kurokawaonsen.or.jp,4.58,6286,32,29,20,26,4,29,2,True,True,True,True,True,True,True,False,False,False,33.0642164,131.1509484,熊本県,豊肥地域雀の地獄,131.0,10.0,0.0,33.0,4.0,30.0,0,井戸,温泉・鉱泉,0,0,0,8.5,0,0,1.6,0.0,0,0,0,0,0,0,0,0,0,0,6.98,5.62,0,0,0,6.18,15.6,0,0,0,0,0,0,0,0,0,0,0,0,0,0,0,0,0,0,0,0,0,1440.0,0,0,0,0,0.0,0.0,0,0,0,0,0,0,0,119.0,0,0,0.0,0,0,0,0,0,0,0,mg/L,0,"地熱流体の化学に基づく豊肥地域熱水系の概念的モデル,地質調査所報告,1985"
片品温泉,群馬県,片品村,大字土出,,4.41,1054,30,28,18,4,2,26,0,True,False,False,True,False,False,False,False,False,False,36.804691,139.233938,群馬県,利根郡片品村,139.0,19.0,58.0,36.0,51.0,52.0,0,不明,温泉・鉱泉,0,0,0,38.5,0,0,0,6.2,0,0,0,0,0,0,0,0,0,0,734.5,18.8,0,0,0,163,96.2,0,0,0,0,0,0,0,0,0,0,0,0,0,0,0,0,0,0,0,0,0,40,0,0,0,0,1735,0,0,0,0,0,0,0,0,52.4,0,0,0.0,0,0,0,0,0,0,0,mg/kg,0,"新潟地熱資源図説明書,地質調査所,1993"
戸倉上山田温泉,長野県,千曲市,上山田温泉一丁目,http://chikuma-kanko.com/modules/contents/index.php?content_id=4,4.17,10263,32,28,27,20,8,28,3,True,False,False,True,False,False,False,False,False,False,36.4778838293457,138.144714355469,長野県,下水内郡豊田村,138.0,19.0,1.0,36.0,43.0,56.0,0,不明,温泉・鉱泉,0,0,0,32.5,160.0,0,7.9,0.0,0,0,0,0,0,0,0,0,0,0,103.4,9.4,0,0,0,3.7,11.7,0,0,0,0,0,0,0,0,0,0,0,0,80.9,0,0,0,0,0,0,0,0,2.8,0,0,0,0,194.6,0,0,0,0,0,0,0,0,78.8,0,0,0.0,0,0,0,0,0,0,0,0,0,新潟地熱資源図説明書，地質調査所，1993
上諏訪温泉,長野県,諏訪市,高島二丁目,http://www.suwako-onsen.com,4.20,18501,29,28,18,15,3,26,2,True,False,True,True,False,False,False,False,False,False,36.0638831,138.1073154,長野県,新湯,138.0,5.0,50.0,36.0,4.0,30.0,0,井戸,温泉・鉱泉,0,0,21.3,48.1,0,0,7.3,7.5,0,0,0,0,0,0,0,0,0,0,198.0,2.8,0,0,0,1.0,110.7,0,0,0,0,0,0,0.0,0,0,0,0,0,218.0,0,0,0,0,0,0,0,0,461.4,0,0,0,0,0,0,0,0,0,0,0,0,0,0,0,0,0.0,0,0,0,0,0,0,0,0,1981,"諏訪地方の温泉,温泉科学,1983"
渋温泉,長野県,山ノ内町,大字平穏,http://www.shibuonsen.net,4.22,4632,30,27,16,13,1,24,1,True,True,False,True,True,True,False,True,False,False,36.734502,138.43227,長野県,下水内郡栄村,138.0,38.0,5.0,36.0,51.0,4.0,0,不明,温泉・鉱泉,0,0,0,45,18.0,0,6.7,0.0,0,0,0,0,0,0,0,0,0,0,5664.0,329.4,0,0,0,284.7,1829.0,0,0,0,0,0,0,0,0,0,0,0,0,11180.0,0,0,0,0,0,0,0,0,1202.0,0,0,0,0,1577.0,0,0,0,0,0,0,0,0,101.5,0,0,0.0,0,0,0,0,0,0,0,0,0,新潟地熱資源図説明書，地質調査所，1993
越前玉川温泉,福井県,越前町,茂原,,4.42,1590,30,27,12,2,0,27,6,True,True,True,False,False,True,False,False,False,False,35.8935596,135.9956754,福井県,芦原町温泉５丁目２０１,136.0,12.0,3.0,36.0,13.0,29.0,0,井戸,温泉・鉱泉,0,0,0,65.5,17.28,0,6.42,0.0,0,1.0062,0,9212.8,0,0,0,0,0,0,2250.0,119.99,0,0,0,5.19,1087.25,0,0,0,0,0,0,0,0,0,0,0,0,4941.73,0,0,0,0,0,0,0,0,748.04,0,0,0,0,39.11,0,0,0,0,0,0,0,0,0,0,0,0.0,0.28,7.41,0,0,0,0,0,0,1971.4.5.,"福井県下の温泉,福井衛研研究報告,1973"
雲見温泉,静岡県,松崎町,雲見,http://kumomikankou.com,4.38,1341,28,26,10,10,0,20,0,True,True,False,False,False,True,False,False,False,False,34.72444,138.745373,静岡県,根の湯,138.0,55.0,47.0,34.0,58.0,3.0,0,井戸,温泉・鉱泉,0,0,0,0,0,0,8.2,0.0,0,0,0,763.3560000000001,0,0,0,0,0,0,171.8,3.749,0,0,0,1.383,50.71,0,0,0,0,0,0,0,0,0,0,0,0,186.8,0,0,0,0,0,0,0,0,142.8,0,0,0,0,123,1.2429999999999999,0,0,0,0,0,0,0,0,0,0,0.0,0,0,0,0,0,0,0,0,1952,"伊豆修善寺温泉地域の地質及び温泉,地質学雑誌,1959"
弓ヶ浜温泉,静岡県,南伊豆町,湊,,4.30,1375,26,26,5,7,0,21,0,True,True,False,False,False,True,False,False,False,False,34.6367697851562,138.890686035156,静岡県,加茂郡東伊豆町,139.0,4.0,28.0,34.0,50.0,37.0,0,井戸,温泉・鉱泉,0,0,0,45.0,0,0,8.4,0.0,0,0,0,1244.0,0,0,0,0,0,0,355.0,6,0,0,0,2.4,25.9,0,0,0,0,0,0,0,0,0,0,0,0,429.4,0,0,0,0,0,0,0,0,208.3,0,0,0,0,160.4,0,0,0,0,0,0,0,0,0,0,0,0.0,0,0,0,0,0,0,0,0,1973,"熱川温泉および周辺地域の地温と化学成分,地熱,1978"
湯の川温泉,北海道,函館市,湯川町一丁目,http://hakodate-yunokawa.jp,4.24,11967,26,25,22,18,8,25,4,False,True,False,False,False,False,False,False,False,False,41.778593,140.789076,北海道,南茅部町臼尻,140.0,57.0,5.0,41.0,56.0,0.0,0,湧泉,温泉・鉱泉,0,0,0,69.5,44,0,6.3,8.1,0,0,0,2384.0,0,0,0,0,0,0,527.0,51.6,0,0,0,59.2,171.1,0,0,0.17,2.11,0.08,0,0.08,0,0.01,0,0,1.72,688.3,0,0,0,0,0,0,0,0,501.9,0,0,0,0,505.1,0,0,0,0,0,0,0,0,46.6,0,68.2,0.0,28.12,132.2,0,0.804,0,0,0,0,1970-06-30 00:00:00,"北海道の地熱・温泉（A）西南北海道中南部,北海道立地下資源調査所,1976"
新那須温泉,栃木県,那須町,大字湯本,http://www.nasuonsen.com,4.04,10106,26,25,15,13,4,25,3,True,True,True,True,False,False,True,False,False,False,37.0834479467773,140.01416015625,栃木県,那須郡那須町,140.0,0.0,16.0,37.0,6.0,16.0,0,不明,温泉・鉱泉,0,0,0,34.0,559.0,0,7.6,0,0,0,0,0,0,0,0,0,0,0,54.6,18.2,0,0,0,24.5,53.3,0,0,0,0,0,0,0,0,0,0,0,0,16.4,0,0,0,0,0,0,0,0,163.0,0,0,0,0,133.0,0,0,0,0,0,0,0,0,137.0,0,0,0.0,0,0,0,0,0,0,0,0,0,"新潟地熱資源図説明書,地質調査所,1993"
池の平温泉,新潟県,妙高市,大字関川,http://www.ikenotaira.jp,4.37,1169,28,25,11,2,1,24,0,True,True,True,True,False,True,False,False,False,False,36.867742,138.17782,新潟県,中頸城郡板倉町,138.0,18.0,54.0,37.0,0.0,45.0,0,不明,温泉・鉱泉,0,0,0,12.0,0,0,0,0,0,0,0,0,0,0,0,0,0,0,0,0,0,0,0,0,0,0,0,0,0,0,0,0,0,0,0,0,0,0,0,0,0,0,0,0,0,0,0,0,0,0,0,0,0,0,0,0,0,0,0,0,0,0,0,0.0,0,0,0,0,0,0,0,0,0,"新潟地熱資源図説明書,地質調査所,1993"
穂高温泉郷,長野県,安曇野市,穂高有明,http://www.hotakaonsen.com,4.35,1732,27,24,10,10,0,23,1,True,False,False,True,False,False,False,False,False,False,36.3747717,137.8302506,長野県,上水内郡中条村,138.0,2.0,58.0,36.0,38.0,23.0,0,不明,温泉・鉱泉,0,0,0,10.2,5.0,0,7.7,0,0,0,0,0,0,0,0,0,0,0,38.0,1.3,0,0,0,2.3,6.0,0,0,0,0,0,0,0,0,0,0,0,0,3.0,0,0,0,0,0,0,0,0,9.4,0,0,0,0,113.2,0,0,0,0,0,0,0,0,47.6,0,0,0.0,0,0,0,0,0,0,0,mg/kg,0,新潟地熱資源図説明書，地質調査所，1993
網代温泉,静岡県,熱海市,下多賀,http://www.ajirospa.com,4.09,6404,27,24,7,13,2,22,3,True,True,False,False,False,True,False,False,False,False,35.044791,139.066573,静岡県,0,139.0,5.0,30.0,35.0,6.0,30.0,0,不明,温泉・鉱泉,0,0,0,67.3,0,0,8.0,0,0,0,0,0,0,0,0,0,0,0,0,0,0,0,0,0,3380.0,0,0,0,0,0,0,0,0,0,0,0,0,8586.0,0,0,0,0,0,0,0,0,1053,0,0,0,0,31,0,0,0,0,0,0,0,0,0,0,0,0.0,0,0,0,0,0,0,0,0,0,"食塩泉中のストロンチウム濃度およびSr/Ca比の変動について,温泉科学,1986"
今井浜温泉,静岡県,河津町,見高,https://www.kawazu-onsen.com/yado/imaispa.html,4.66,2258,25,24,6,11,3,21,1,True,True,False,False,False,False,False,False,False,False,34.752142,139.001306,静岡県,加茂郡東伊豆町,139.0,4.0,28.0,34.0,50.0,37.0,0,井戸,温泉・鉱泉,0,0,0,45.0,0,0,8.4,0,0,0,0,1244.0,0,0,0,0,0,0,355.0,6,0,0,0,2.4,25.9,0,0,0,0,0,0,0,0,0,0,0,0,429.4,0,0,0,0,0,0,0,0,208.3,0,0,0,0,160.4,0,0,0,0,0,0,0,0,0,0,0,0.0,0,0,0,0,0,0,0,0,1973,"熱川温泉および周辺地域の地温と化学成分,地熱,1978"
久美浜温泉郷,京都府,京丹後市,久美浜町湊宮,,4.36,2227,25,24,13,8,0,24,3,False,True,False,True,True,True,False,False,False,False,35.6431196,134.9104353,,,,,,,,,,,,,,,,,,,,,,,,,,,,,,,,,,,,,,,,,,,,,,,,,,,,,,,,,,,,,,,,,,,,,,,,,,,,,,,,,,,,,
香住温泉,兵庫県,香美町,香住区七日市,,4.44,2658,26,24,12,7,1,25,1,True,True,False,False,False,True,False,False,False,False,35.6460463,134.6128711,兵庫,0,134.0,37.0,42.0,35.0,36.0,25.0,0,不明,温泉・鉱泉,0,0,0,0,0,0,7.4,0,0,0,0,0,2860.0,0,0,0,0,0.24,346.0,8.0,0,0,0,1.0,197.0,0,0,0.04,0.07,0.05,0,0,0,0,0,0,4.11,612.0,1.98,0.05,0,0,0,0,0,0,343.0,0,0,0,0,0,0,0,0,0,0,0,0,0,57.0,0,0,0.0,<0.5,0,10.8,0.08199999999999999,0,0,0.87,0,1995.11.17.,"兵庫県北西部浜坂周辺温泉の成因,温泉科学,1996"
指宿温泉,鹿児島県,指宿市,東方,http://www.ibusuki.or.jp/spa/,4.12,9710,26,24,17,13,4,24,1,False,True,False,True,False,False,False,False,False,False,31.23569,130.649397,鹿児島県,0,130.0,45.0,47.0,31.0,28.0,47.0,0,不明,温泉・鉱泉,0,0,0,0,0,0,9.06,0,0,0,0,0,0,0,0,0,0,0,32.8,0.35,0,0,0,0.22,12.1,0,0,0,0.18,0,0,0.02,0,0,0,0,0.91,6.5,0,0,0,0,0,0,0,0,46.0,0,0,0,0,79.4,0,0,0,0,0,0,0,0,0,0,0,0.0,0,0,0,0,0,0,0,0,1990-10-15 00:00:00,"鹿児島県の温泉 鹿児島市および周辺の温泉,鹿児島県 保健環境部 生活衛生課,鹿児島県公害防止協会,1991"
秩父温泉,埼玉県,秩父市,黒谷,,4.27,9805,28,24,21,17,2,26,0,True,True,True,True,False,False,False,False,False,False,36.027005,139.121047,,,,,,,,,,,,,,,,,,,,,,,,,,,,,,,,,,,,,,,,,,,,,,,,,,,,,,,,,,,,,,,,,,,,,,,,,,,,,,,,,,,,,
戸狩温泉,長野県,飯山市,大字豊田,http://www.togarionsen.jp,3.76,356,25,22,12,0,0,22,0,True,False,False,False,False,False,False,False,False,False,36.921071,138.3820139,長野県,飯山市,138.0,25.0,15.0,36.0,56.0,27.0,0,不明,温泉・鉱泉,773.0,0,0,37.5,0,0,8.2,0,0,0,0,0,0,0,0,0,0,0,49.1,5.3,0,0,0,0.4,1.6,0,0,0,0,0,0,0,0,0,0,0,0,35.3,0,0,0,0,0,0,0,0,2.0,0,0,0,0,71.4,0,0,0,0,0,0,0,0,83.1,0,0,0.0,0,0,0,0,0,0,0,mg/kg,0,新潟地熱資源図説明書，地質調査所，1993
下田温泉,静岡県,下田市,柿崎,http://hotel.shimoda100.com,3.95,6214,23,22,12,9,2,21,1,True,True,False,False,False,False,False,False,False,False,34.6685843603516,138.940246582031,静岡県,加茂郡東伊豆町,139.0,4.0,28.0,34.0,50.0,37.0,0,井戸,温泉・鉱泉,0,0,0,45.0,0,0,8.4,0,0,0,0,1244.0,0,0,0,0,0,0,355.0,6,0,0,0,2.4,25.9,0,0,0,0,0,0,0,0,0,0,0,0,429.4,0,0,0,0,0,0,0,0,208.3,0,0,0,0,160.4,0,0,0,0,0,0,0,0,0,0,0,0.0,0,0,0,0,0,0,0,0,1973,"熱川温泉および周辺地域の地温と化学成分,地熱,1978"
新平湯温泉,岐阜県,高山市,奥飛騨温泉郷一重ヶ根,http://shinhirayuonsen.com,4.33,3233,24,22,11,21,1,20,0,True,False,True,True,False,False,False,False,False,False,36.231434,137.53232,岐阜県,0,137.0,34.0,33.0,36.0,16.0,51.0,0,湧泉,温泉・鉱泉,0,0,0,48.0,0,0,7.7,0,0,0,0,0,0,0,0,0,0,0,68.05,8.21,0,0,0,0.73,15.23,0,0,0,0,0,0,0,0,0,0,0,0,72.32,0,0,0,0,0,0,0,0,12.97,0,0,0,0,95.8,0,0,0,0,0,0,0,0,0,0,0,0.0,0,0,0,0,0,0,0,0,1977.7.19.,"焼岳地域の温泉水の同位体組成，化学組成および地下温度について,日本地熱学会誌,1980"
筋湯温泉,大分県,九重町,大字湯坪,http://www.sujiyu-onsen.com/,4.43,1852,25,22,7,16,1,18,0,True,True,False,False,False,False,False,False,False,False,33.1150298254394,131.186386108398,大分県,湯布院町大字湯平字谷向,131.0,18.0,47.0,33.0,11.0,40.0,680.0,不明,温泉・鉱泉,0,0,21.2,35.8,67.0,0,7.4,8.35,0,0,0,189.0,0,0,0,0,0,0.01,18.1,6.46,0.01,0.01,0.0,2.48,5.27,0,0,0.0,0.0,0,0,0.0,0.0,0,0,0,0.1,1.8,0.0,0.01,0,0,0,0,0,0,7.6,0,0,0,0,78.8,0,0,0,0,0,0,0,0,104.0,0,0,0.0,0.0,62.0,0,0.001,0.0003,0,0.0,0,1984-09-04 00:00:00,"平成元年度 全国地熱資源総合調査 広域熱水流動調査（第3次）鶴見岳地域 流体地化学調査報告書(要旨),1990"
奥日光湯元温泉,栃木県,日光市,湯元,http://www.nikkoyumoto.com,4.43,5658,23,21,16,16,1,18,1,False,True,True,True,True,True,True,True,False,False,36.806707,139.423924,栃木県,那須郡塩原町,139.0,46.0,48.0,36.0,59.0,16.0,0,不明,温泉・鉱泉,0,0,0,65.8,4513.0,0,7.3,0,0,0,0,0,0,0,0,0,0,0,453.0,17.7,0,0,0,4.7,31.0,0,0,0,0,0,0,0,0,0,0,0,0,528.0,0,0,0,0,0,0,0,0,133.0,0,0,0,0,298.0,0,0,0,0,0,0,0,0,104.0,0,0,0.0,0,0,0,0,0,0,0,mg/kg,0,"新潟地熱資源図説明書,地質調査所,1993"
浅間温泉,長野県,松本市,浅間温泉一丁目,http://www.asamaonsen.com,4.30,4726,25,21,18,12,2,21,0,True,False,False,True,False,False,False,False,False,False,36.262964,137.991942,長野県,0,138.0,6.0,30.0,36.0,22.0,0.0,0,不明,温泉・鉱泉,0,0,0,36,0,0,9.3,0,0,0,0,0,0,0,0,0,0,0,52.0,1.0,0,0,0,4.4,20.0,0,0,0,0,0,0,0,0,0,0,0,0,53.1,0,0,0,0,0,0,0,0,79.8,0,0,0,0,9.6,9.0,0,0,0,0,0,0,0,0,0,0,0.0,0,0,0,0,0,0,0,0,1955.3.,"長野県浅間温泉調査報告,地調月報,1957"
和倉温泉,石川県,七尾市,和倉町,http://www.wakura.or.jp,4.03,11910,21,21,21,17,8,21,4,False,True,False,False,False,False,False,False,False,False,37.0897155,136.9174737,石川県,0,137.0,1.0,5.0,37.0,4.0,21.0,0,井戸,温泉・鉱泉,80.0,0,0,27.6,138.0,0,8.3,0,0,0,0,0,0,0,0,0,0,0,662.0,22.7,0,0,17.6,5.43,5.55,0,0,0,0,0,0,0,0,0,0,0,0,603.0,0,0,0,0,0,0,0,0,29.8,0,0,0,0,948.0,37.9,0,0,0,0,0,0,0,0,0,0,0.39,0,0,0,0,0,0,0,0,0,"能登半島のヘリウム資源調査研究,地調月報,1974"
かみのやま温泉,山形県,上山市,葉山,http://kaminoyama-spa.com,4.29,7154,22,20,18,12,4,20,3,True,True,False,False,True,True,False,False,False,False,38.160768,140.276639,山形県,山形市山寺字中嶋,140.0,26.0,41.0,38.0,18.0,42.0,0,井戸,温泉・鉱泉,200.0,0,0,13,40.0,0,7.4,0,0,0,0,0,0,0,0,0,0,0,24.7,0.43,0,0,0,0.982,0.4,0,0,0,0,0,0,0,0,0,0,0,0,6.737,0,0,0,0,0,0,0,0,15.8,0,0,0,0,47.3,0,0,0,0,0,0,0,0,22.3,0,0,0.0,0,0,0,0,0,0,0,mg/kg,0,秋田地熱資源図説明書，地質調査所，1996
岩原温泉,新潟県,湯沢町,大字土樽,http://yuzawa.jp,4.00,774,22,20,14,2,2,17,1,True,True,False,True,False,False,False,False,False,False,36.937616,138.843273,新潟県,北魚沼郡湯之谷村,139.0,0.0,56.0,37.0,13.0,30.0,0,不明,温泉・鉱泉,409,0,0,24.5,740.0,0,7.2,0,0,0,0,0,0,0,0,0,0,0,352.9,21.2,0,0,0,57.9,275,0,0,0,0,0,0,0,0,0,0,0,0,72.7,0,0,0,0,0,0,0,0,964.9,0,0,0,0,764.2,0,0,0,0,0,0,0,0,59.2,0,0,0.0,0,0,0,0,0,0,0,0,0,"新潟地熱資源図説明書,地質調査所,1993"
山代温泉,石川県,加賀市,山代温泉,http://www.yamashiro-spa.or.jp,4.21,12483,21,20,20,20,8,20,2,True,True,False,False,True,True,False,False,False,False,36.288948,136.363087,石川県,0,136.0,46.0,21.0,36.0,42.0,10.0,0,井戸,温泉・鉱泉,298.0,0,0,25.6,10.0,0,7.4,0,0,0,0,0,0,0,0,0,0,0,17.5,15.0,0,0,3.37,11.9,22.0,0,0,0,0,0,0,0,0,0,0,0,0,12.3,0,0,0,0,0,0,0,0,4.6,0,0,0,0,185.0,0.0,0,0,0,0,0,0,0,0,0,0,0.17,0,0,0,0,0,0,0,0,0,"能登半島のヘリウム資源調査研究,地調月報,1974"
三国温泉,福井県,坂井市,三国町緑ケ丘四丁目,,3.99,1585,23,20,9,6,1,19,3,True,True,True,True,False,True,False,False,False,False,36.222126,136.1373522,福井県,金津町吉崎４字西屋敷,136.0,15.0,16.0,36.0,16.0,56.0,0,井戸,温泉・鉱泉,0,0,0,30.5,72.0,0,6.9,0,0,1.0092,0,19193.0,0,0,0,0,0,0,4318.5,78.5,0,0,0,3.2,2810.5,0,0,0,0,0.7,0,0,0,0,0,0,0,11635.0,4.0,0,0,0,0,0,0,0,106.7,0,0,0,0,0,0,0,0,0,0,0,0,0,0,0,0,0.0,0,1.2,0,0,0,0,0,0,1956.11.30.,"福井県下の温泉,福井衛研研究報告,1973"
皆生温泉,鳥取県,米子市,皆生温泉三丁目,http://www.kaike-onsen.com/index_pc.html,4.16,16888,21,20,18,15,7,20,1,False,True,False,False,False,False,False,False,False,False,35.4549935,133.3610501,鳥取県,亀屋,133.0,53.0,20.0,35.0,28.0,30.0,0,不明,温泉・鉱泉,0,0,0,56.0,0,0,7.55,0,0,0,0,0,0,0,0,0,0,0,0,0,0,0,0,0,0,0,0,0,0,0,0,0,0,0,0,0,0,0,0,0,0,0,0,0,0,0,0,0,0,0,0,0,0,0,0,0,0,0,0,0,0,0,0,0.0,0,0,0,0,0,0,0,0,1974-08-01 00:00:00,"鉱泉中のラジウム、ラドン同時定量に関する研究その１,温泉科学,1978"
湯平温泉,大分県,由布市,湯布院町湯平,http://www.yunohira-onsen.jp,4.74,1601,20,20,4,13,1,19,1,True,True,True,False,False,True,False,False,False,False,33.195063,131.32685,大分県,別府市上人ヶ浜町,131.0,30.0,13.0,33.0,18.0,46.0,3.0,井戸,温泉・鉱泉,300.0,0,26.2,62.3,50.0,0,8.0,8.41,0,0,0,2220.0,0,0,0,0,0,2.93,640.0,62.2,0.42,0.19,0.16,8.1,64.2,0,0,0.72,0.75,0,0,0.78,0.0,0.01,0.11,0,0.16,941.0,2.43,0.0,0,0,0,0,0,0,224.0,0,0,0,0,154.0,0,0,0,0,0,0,0,0,142.0,0,0,0.0,0.0,177.0,0,0.56,0.0003,0,8.33,0,1983-09-24 00:00:00,"平成元年度 全国地熱資源総合調査 広域熱水流動調査（第3次）鶴見岳地域 流体地化学調査報告書(要旨),1990"
湯田中温泉,長野県,山ノ内町,大字平穏,http://www.avis.ne.jp/~yudanaka/,4.23,3767,22,19,15,10,4,19,3,True,True,True,True,False,True,False,False,False,False,36.738663,138.419993,長野県,下水内郡栄村,138.0,38.0,5.0,36.0,51.0,4.0,0,不明,温泉・鉱泉,0,0,0,45,18.0,0,6.7,0,0,0,0,0,0,0,0,0,0,0,5664.0,329.4,0,0,0,284.7,1829.0,0,0,0,0,0,0,0,0,0,0,0,0,11180.0,0,0,0,0,0,0,0,0,1202.0,0,0,0,0,1577.0,0,0,0,0,0,0,0,0,101.5,0,0,0.0,0,0,0,0,0,0,0,0,0,新潟地熱資源図説明書，地質調査所，1993
芦原温泉,福井県,あわら市,温泉四丁目,http://awara.info,4.17,16587,20,19,18,16,6,19,2,True,True,False,False,False,False,False,False,False,False,36.2251264,136.1920006,福井県,金津町吉崎４字西屋敷,136.0,15.0,16.0,36.0,16.0,56.0,0,井戸,温泉・鉱泉,0,0,0,30.5,72.0,0,6.9,0,0,1.0092,0,19193.0,0,0,0,0,0,0,4318.5,78.5,0,0,0,3.2,2810.5,0,0,0,0,0.7,0,0,0,0,0,0,0,11635.0,4.0,0,0,0,0,0,0,0,106.7,0,0,0,0,0,0,0,0,0,0,0,0,0,0,0,0,0.0,0,1.2,0,0,0,0,0,0,1956.11.30.,"福井県下の温泉,福井衛研研究報告,1973"
佐津温泉,兵庫県,香美町,香住区訓谷,http://kasumi-kanko.com/stay/sazu/stay_cat_sazu.html,4.54,1071,19,19,6,5,1,18,3,False,True,True,True,True,True,False,False,False,False,35.6525995,134.6914331,兵庫,0,134.0,37.0,42.0,35.0,36.0,25.0,0,不明,温泉・鉱泉,0,0,0,0,0,0,7.4,0,0,0,0,0,2860.0,0,0,0,0,0.24,346.0,8.0,0,0,0,1.0,197.0,0,0,0.04,0.07,0.05,0,0,0,0,0,0,4.11,612.0,1.98,0.05,0,0,0,0,0,0,343.0,0,0,0,0,0,0,0,0,0,0,0,0,0,57.0,0,0,0.0,<0.5,0,10.8,0.08199999999999999,0,0,0.87,0,1995.11.17.,"兵庫県北西部浜坂周辺温泉の成因,温泉科学,1996"
霧島温泉,鹿児島県,霧島市,牧園町高千穂,http://kirishimakankou.com,4.41,10234,21,19,9,17,5,19,5,True,True,True,True,False,False,False,False,False,False,31.9029762,130.8547158,鹿児島県,0,130.0,44.0,51.0,32.0,0.0,7.0,0,不明,温泉・鉱泉,0,0,0,40.0,0,0,8.9,0,0,0,0,0,0,0,0,0,0,0,28.7,0.35,0,0,0,0.01,6.52,0,0,0,0.02,0,0,0.17,0,0,0,22.7,0.44,3.0,0.02,0,0,0,0,0,0,0,14.3,0,0,0,0,48.1,0,0,0,0,0,0,0,0,0,0,0,0.0,0,0,0,75.1,0,0,0.13,0,1994-12-01 00:00:00,"鹿児島県の温泉 北薩・伊佐・吉松地域の温泉,鹿児島県 保健環境部 生活衛生課,鹿児島県公害防止協会,1995"
熊野本宮温泉郷,和歌山県,田辺市,本宮町川湯,http://www.hongu.jp,4.39,3928,21,19,9,14,0,18,1,True,True,True,True,False,False,False,True,False,False,33.829783,135.757974,和歌山県,東牟婁郡本宮町,135.0,46.0,10.0,33.0,49.0,8.0,0,不明,温泉・鉱泉,0,0,0,72,576,0,7,0,0,0,0,1422,0,0,0,0,0,0,304,15,0,0,0,6.792,20.11,0,0,0,0,0,0,0,0,0,0,0,0,134.6,0,0,0,0,0,0,0,0,14.24,0,0,0,0,700.9,0,0,0,0,0,0,0,0,0,0,0,0.0,0,0,0,0,0,0,0,0,1975,"湯の峰・渡瀬・川湯温泉の化学成分と地球化学温度計による地下温度の推定,温泉工学会誌,1981"
南知多温泉郷,愛知県,南知多町,大字内海,http://minamichita-kk.com/spa,3.96,3839,25,19,20,13,3,24,1,True,True,True,False,False,False,False,False,False,False,34.7315944,136.8724887,愛知県,西加茂郡猿投町加納大角豆洞31,137.0,10.0,13.0,35.0,9.0,1.0,0,湧泉,温泉・鉱泉,0,0,34.0,24.4,3.9,0,5.8,0,0,0,0,92.2,0,0,0,0,0.002,0,9.115,0.9009999999999999,0,0,0,1.489,7.572,0,0,0.223,0.15,4.195,0,0,0,0,0,0,0.301,12.6,0,0,0,0,0,0,0,0,4.537,0,0,0,0,38.26,0,0,0,0,0,0,0,0,0,0,0,0.0,2.525,147.2,0,0,0,0,0,0,1963.11.28.,"愛知県地方鉱泉の分析成績について（第３報）,愛知衛研所報告,1967"
花巻温泉郷,岩手県,花巻市,鉛,,4.36,15900,24,19,16,12,6,19,3,True,True,True,True,True,True,False,False,False,False,39.453714,141.05478,岩手県,岩手郡滝沢村鵜飼字土沢,141.0,5.0,18.0,39.0,44.0,49.0,0,不明,温泉・鉱泉,0,0,0,0,0,0,0,0,0,0,0,0,0,0,0,0,0,0,0,0,0,0,0,0,0,0,0,0,0,0,0,0,0,0,0,0,0,0,0,0,0,0,0,0,0,0,0,0,0,0,0,0,0,0,0,0,0,0,0,0,0,0,0,0.0,0,0,0,0,0,0,0,0,0,秋田地熱資源図説明書，地質調査所，1996
東山温泉,福島県,会津若松市,東山町大字石山,http://www.aizu-higashiyama.com/index.html,3.94,16900,18,18,16,10,3,18,1,True,True,False,False,True,True,False,False,False,False,37.473757,139.96228,福島県,福島県耶麻郡北塩原村,140.0,4.0,18.0,37.0,43.0,22.0,0,井戸,温泉・鉱泉,700.0,0,0,43.1,>104,0,8.1,0,0,0,0,0,0,0,0,0,0,0,255.0,3.1,0,0,0,0.3,213.0,0,0,0,0,0,0,0,0,0,0,0,0,44.7,0,0,0,0,0,0,0,0,935.0,0,0,0,0,22.0,0,0,0,0,0,0,0,0,31.0,0,0,0.0,0,0,0,0,0,0,0,0,0,新潟地熱資源図説明書，地質調査所，1993
尾瀬戸倉温泉,群馬県,片品村,大字戸倉,,4.43,1044,20,18,8,0,1,17,0,True,True,False,True,False,False,False,False,False,False,36.8383043,139.2460807,群馬県,利根郡片品村,139.0,19.0,58.0,36.0,51.0,52.0,0,不明,温泉・鉱泉,0,0,0,38.5,0,0,0,6.2,0,0,0,0,0,0,0,0,0,0,734.5,18.8,0,0,0,163,96.2,0,0,0,0,0,0,0,0,0,0,0,0,0,0,0,0,0,0,0,0,0,40,0,0,0,0,1735,0,0,0,0,0,0,0,0,52.4,0,0,0.0,0,0,0,0,0,0,0,mg/kg,0,"新潟地熱資源図説明書,地質調査所,1993"
猿ヶ京温泉,群馬県,みなかみ町,猿ヶ京温泉,http://www.sarugakyo-ryokan.com/,4.29,4947,20,18,13,15,1,18,0,True,True,False,False,True,True,False,False,False,False,36.7284662,138.888361,群馬県,利根郡水上町,139.0,2.0,53.0,36.0,50.0,48.0,0,不明,温泉・鉱泉,0,0,0,73.0,1860.0,0,0,7.1,0,0,0,0,0,0,0,0,0,0,175,12.5,0,0,0,1.6,46,0,0,0,0,0,0,0,0,0,0,0,0,305,0,0,0,0,0,0,0,0,200,0,0,0,0,27.7,0,0,0,0,0,0,0,0,82.3,0,0,0.0,0,0,0,0,0,0,0,0,0,"新潟地熱資源図説明書,地質調査所,1993"
鴨川温泉,千葉県,鴨川市,西町,http://www.kamogawa-hotel.info,4.22,7573,20,18,14,9,3,19,1,True,True,True,True,False,False,False,False,False,False,35.0793452,140.0980036,千葉県,0,140.0,13.0,48.0,35.0,12.0,13.0,0,不明,温泉・鉱泉,0,0,0,19.2,0,0,8.3,0,0,0,0,0,0,0,0,0,0,0,1117.0,22.1,0,0,0,5.28,5.6,0,0,0,0,0,0,0,0,0,0,0,0,1101.0,5.01,1.63,0,0,0,0,0,0,<1,0,0,0,0,1142.0,0,0,0,0,0,0,0,0,0,0,0,0.0,0,0,0,0,0,0,0,0,1993.11.15.,"千葉県を中心とした地域の温鉱泉水およびガス田付随水中の臭化物およびヨウ化物イオン含量,温泉科学　第46巻,1996"
三朝温泉,鳥取県,三朝町,大字山田,http://spa-misasa.jp,4.32,6689,20,18,14,11,5,18,1,True,True,True,False,True,True,False,False,False,False,35.406954,133.893779,鳥取県,鳥取市,134.0,14.0,20.0,35.0,29.0,21.0,0,井戸,温泉調査井,300.0,0,14.4,52.3,56.2,0,0,0,0,0,0,0,0,0,0,0,0,0,0,0,0,0,0,0,106.7,0,0,0,0,0,0,0,0,0,0,0,0,990.0,0,0,0,0,0,0,0,0,1460.0,0,0,0,0,504.0,0,0,0,0,0,0,0,0,0,0,0,0.0,0,0,0,0,0,0,0,0,1961.4.27.,"鳥取市内温泉の試錐による調査研究水温および化学成分について,岡山大学温研報告,1963"
湯田温泉,山口県,山口市,湯田温泉四丁目,http://www.yudaonsen.com,4.20,13265,18,18,14,9,5,18,2,True,False,False,True,False,False,False,False,False,False,34.164037,131.457221,山口,0,131.0,16.0,18.269999999881747,34.0,1.0,44.349999999988654,0,井戸,温泉・鉱泉,250,0,11.8,40.1,83.6,0,8.91,0,27.5,0,0,262.0,0,0,0,0,0,0,81.5,1,0,0,0,0.0,3.4,0,0,0,0,0,0,0,0,0,0,0,11.4,75.26,0,0,0,0,0,0,0,0,5.42,0,0,0,0,30.5,21.0,0,0,0,0,0,0,0,0,43.77,0,0.0,0,0,0,0,0,0,0,mg/kg,1991.3.,"山口県の温泉概観,山口県の自然,1988"
湯野浜温泉,山形県,鶴岡市,湯野浜一丁目,http://www.yunohamaonsen.com,4.12,5744,18,17,16,9,5,17,1,True,True,False,False,True,True,False,False,False,False,38.783523,139.754222,山形県,飽海郡遊佐町杉沢,139.0,57.0,46.0,39.0,0.0,8.0,0,不明,温泉・鉱泉,0,0,0,7,0,0,6.6,0,0,0,0,0,0,0,0,0,0,0,13.56,1.599,0,0,0,13.13,16.93,0,0,0,0,0,0,0,0,0,0,0,0,18.44,0,0,0,0,0,0,0,0,2.469,0,0,0,0,157.1,0,0,0,0,0,0,0,0,24.7,0,0,0.0,0,0,0,0,0,0,0,mg/kg,0,秋田地熱資源図説明書，地質調査所，1996
苗場温泉,新潟県,湯沢町,大字三国,,4.19,2028,20,17,10,5,0,20,0,True,True,True,False,True,True,False,False,False,False,36.7906816,138.792326,新潟県,南魚沼郡六日町,138.0,58.0,4.0,37.0,2.0,58.0,0,不明,温泉・鉱泉,200,0,0,26.9,1640.0,0,7.5-8.5,0,0,0,0,0,0,0,0,0,0,0,0,0,0,0,0,0,0,0,0,0,0,0,0,0,0,0,0,0,0,0,0,0,0,0,0,0,0,0,0,0,0,0,0,0,0,0,0,0,0,0,0,0,0,0,0,0.0,0,0,0,0,0,0,0,0,0,"新潟地熱資源図説明書,地質調査所,1993"
山中温泉,石川県,加賀市,山中温泉下谷町,https://www.yamanaka-spa.or.jp,3.99,7306,19,17,15,16,5,17,4,True,False,False,False,True,True,False,False,False,False,36.2468657629394,136.373641967773,石川県,白山地域,136.0,46.0,20.0,36.0,15.0,16.0,0,湧泉,温泉・鉱泉,0,0,0,81.0,0,0,7.8,0,0,0,0,2530.0,0,0,-120.0,0,0,0,523.0,51.0,0,0,0,0,42.0,0,0,0,0,0,0,0,0,0,0,0,0,1100.0,0,0,0,0,0,0,0,0,0,0,0,0,0,0,0,0,0,0,0,0,0,0,0,0,0,0.0,0,0,0,0,0,0,0,0,1977.10.,"中部地方における温泉水中のホウ素の地球化学的研究（第１報）,地球化学,1983"
熱川温泉,静岡県,東伊豆町,奈良本,http://www.atagawa.net,4.24,6614,17,17,11,13,4,16,1,False,True,False,False,True,True,False,False,False,False,34.8163963,139.0720849,静岡県,熱海市,139.0,4.0,13.0,35.0,5.0,52.0,0,井戸,温泉・鉱泉,300.0,0,0,63.0,0,0,8.0,0,0,0,0,9300.0,0,0,0,0,0,0,555.0,15.1,0,0,0,1.7,980.6,0,0,0.6,0,0,0,0.7,0,0,0,0,0,2155.8,0,0,0,0,0,0,0,0,629.2,0,0,0,0,21.4,0,0,0,0,0,0,0,0,0,0,8.2,0.0,0,0,0,0,0,0,0,0,1964,"熱海温泉の熱水系について,地調月報,1969"
湯原温泉郷,岡山県,真庭市,湯原温泉,http://www.yubara.com,4.30,5535,18,17,10,12,2,17,1,True,False,False,False,False,False,False,False,False,False,35.1999311,133.7325018,岡山県,奥津荘,133.0,55.0,30.0,35.0,13.0,10.0,0,不明,温泉・鉱泉,0,0,29.5,42.8,0,0,8.6,0,0,0,0,0,0,0,0,0,0,0,0,0,0,0,0,3.2,2.0,0,0,0,0,0,0,0,0,0,0,0,1.6,10.1,0,0,0,0,0,0,0,0,0,0,0,0,0,0,0,0,0,0,0,0,0,0,0,0,0,0.0,0,0,0,0,0,0,0,0,0,"山陰地方の温泉のフッ素含有量,電気通信大学学報（理工学編）,1981"
八幡平温泉,岩手県,八幡平市,松尾寄木,http://www.hachimantai.or.jp/onsen/search.cgi,4.26,1607,19,16,5,4,2,16,1,True,False,False,True,False,False,False,False,False,False,39.902998,140.975115,岩手県,二戸郡安代町小屋畑,141.0,1.0,13.0,40.0,4.0,30.0,0,不明,温泉・鉱泉,0,0,0,33.4,0,0,9.3,0,0,0,0,0,0,0,0,0,0,0,33.8,0.3,0,0,0,0.0,6.4,0,0,0,0,0,0,0,0,0,0,0,0,3.9,0,0,0,0,0,0,0,0,57.5,0,0,0,0,31.4,0,0,0,0,0,0,0,0,10.5,0,0,0.0,0,0,0,0,0,0,0,0,0,青森地熱資源図説明書，地質調査所，2001
秋保温泉,宮城県,仙台市太白区,秋保町湯元,http://akiuonsenkumiai.com,4.11,21611,19,16,16,12,7,18,4,False,True,False,True,True,False,False,False,False,False,38.226743,140.7181364,宮城県,志田郡三本木町坂本字青山,140.0,54.0,28.0,38.0,30.0,38.0,0,不明,温泉・鉱泉,0,0,0,<25,0,0,0,0,0,0,0,0,0,0,0,0,0,0,0,0,0,0,0,0,0,0,0,0,0,0,0,0,0,0,0,0,0,0,0,0,0,0,0,0,0,0,0,0,0,0,0,0,0,0,0,0,0,0,0,0,0,0,0,0.0,0,0,0,0,0,0,0,0,0,秋田地熱資源図説明書，地質調査所，1996
湯野上温泉,福島県,下郷町,大字湯野上,http://yunokami.com,4.03,1477,23,16,11,12,0,15,1,True,False,False,True,False,False,False,False,False,False,37.3026994,139.8963801,福島県,猪苗代湖畔,140.0,3.0,50.0,37.0,32.0,50.0,0,湧泉,温泉･鉱泉,0,0,0,22,0,無色澄明,7,0,0,1.0007,0,704.0,0,0,0,0,0,0,160.0,49.9,0,0,0,0.6,29.5,0,0,1.2,0,76.1,0,0,0,0,0,0,0,221.8,0,0,0,0,0,0,0,0,30.4,0,0,0,0,349.3,0,0,0,0,0,0,0,0,0,83.9,0,0.0,0,8.7,0,0,0,0,0,mg/kg,1952/1,福島県の温泉の成分に関する研究（その６），福島県衛生研研究報告，1955
姥子温泉,神奈川県,箱根町,仙石原,,4.11,7238,17,16,13,13,5,16,1,True,True,True,True,True,True,False,False,False,False,35.2476078,138.9987311,神奈川県,信玄館,139.0,3.0,10.0,35.0,26.0,30.0,0,井戸,温泉・鉱泉,0,0,0,32.9,0,0,9.93,7.75,0,0,0,528.6,0,0,0,0,0,0.088,153.0,1.72,0,0,0,0.48200000000000004,19.9,0,0,0.068,0,0.15,0,0,0,0,0,0,0,44.57,0,0,1.45,0,0,0,0,0,260,0,0,0,0,32.6,1.64,0,0,0,0,0,0,0,0,0,1.319,0.446,0,0,0,0,0,0,0,0,1963-09-27 00:00:00,"丹沢山地の温泉鉱泉.神奈川県温研報告,1964"
鹿教湯温泉,長野県,上田市,西内,http://www.kakeyu.or.jp,4.05,2371,20,16,16,11,0,16,0,True,False,False,False,False,False,False,False,False,False,36.3012855,138.1349177,長野県,更埴市,138.0,10.0,2.0,36.0,31.0,56.0,0,不明,温泉・鉱泉,0,0,0,24,30.0,0,8.0,0,0,0,0,0,0,0,0,0,0,0,0,0,0,0,0,0,0,0,0,0,0,0,0,0,0,0,0,0,0,114.0,0,0,0,0,0,0,0,0,0,0,0,0,0,33.1,0,0,0,0,0,0,0,0,0,0,0,0.0,0,0,0,0,0,0,0,0,0,新潟地熱資源図説明書，地質調査所，1993
氷見温泉郷,富山県,氷見市,阿尾,https://kitokitohimi.com/site/stay/himionsen.html,4.02,3459,18,16,13,8,1,17,0,True,True,True,False,False,False,False,False,False,False,36.8449209,136.9973356,富山県,立山地域,137.0,38.0,15.0,36.0,52.0,33.0,0,湧泉,温泉・鉱泉,0,0,0,47.0,0,0,8.2,0,0,0,0,920.0,0,0,-200.0,0,0,0,417.0,17.0,0,0,0,0,54.0,0,0,0,0,0,0,0,0,0,0,0,0,357.4,0,0,0,0,0,0,0,0,0,0,0,0,0,0,0,0,0,0,0,0,0,0,0,0,0,0.0,0,0,0,0,0,0,0,0,1977.10.,"中部地方における温泉水中のホウ素の地球化学的研究（第１報）,地球化学,1983"
玉造温泉,島根県,松江市,玉湯町玉造,http://tamayado.com,4.23,12372,17,16,15,14,4,16,2,True,True,False,False,True,True,False,False,False,False,35.4146962,133.0101908,島根,長楽園竜宮,133.0,0.0,50.0,35.0,24.0,50.0,0,不明,温泉・鉱泉,0,0,0,72.0,0,0,8.1,0,0,0,0,0,0,0,0,0,0,0.275,385.0,12.8,0,0,0,0.7,141.0,0,0,0,0.01,0,0,0.01,0,0,0,0,0,227.0,0.54,0.006,0,0,0,0,0,0,869.0,0,0,0,0,27.46,0,0,0,0,0,0,0,0,40.0,0,5.3,0.0,0,0,0,0,0,0,0,0,1966-07-16 00:00:00,"島根県温泉の化学,温泉科学,1977"
六日町温泉郷,新潟県,南魚沼市,小栗山,http://www.muikamachi.jp/hotspring/index.html,4.17,1910,22,16,11,7,0,16,0,True,True,False,False,False,False,False,False,False,False,37.071185,138.848245,新潟県,北魚沼郡湯之谷村,139.0,0.0,56.0,37.0,13.0,30.0,0,不明,温泉・鉱泉,409,0,0,24.5,740.0,0,7.2,0,0,0,0,0,0,0,0,0,0,0,352.9,21.2,0,0,0,57.9,275,0,0,0,0,0,0,0,0,0,0,0,0,72.7,0,0,0,0,0,0,0,0,964.9,0,0,0,0,764.2,0,0,0,0,0,0,0,0,59.2,0,0,0.0,0,0,0,0,0,0,0,0,0,"新潟地熱資源図説明書,地質調査所,1993"
定山渓温泉,北海道,札幌市南区,定山渓温泉東二丁目,http://jozankei.jp,4.17,12490,17,15,13,14,7,15,4,True,True,False,False,False,False,False,False,False,False,42.9705042,141.1647216,北海道,当別町太美,141.0,27.0,3.0,43.0,11.0,15.0,0,井戸,温泉・鉱泉,100,0,0,26.0,50,0,8.1,8.2,0,0,0,1887.0,0,0,0,0,0,0,682.0,30.8,0,0,0,11.7,9.1,0,0,0.06,0.05,0.12,0,0.12,0,0.008,0,0,0.15,929.6,0,0,0,0,0,0,0,0,0.0,0,0,0,0,368.4,3.7,0,0,0,0,0,0,0,128.9,0,14.2,0.0,0,0,0,0.019,0,0,0,0,1973-10-31 00:00:00,"北海道の地熱・温泉（C）北海道中央部、北海道立地下資源調査所,1979"
肘折温泉,山形県,大蔵村,大字南山,http://hijiori.jp,4.39,2023,19,15,12,5,0,15,1,True,True,True,False,False,False,False,False,False,False,38.6081559,140.167102,山形県,最上郡真室川町及位,140.0,21.0,6.0,38.0,58.0,1.0,0,湧泉,温泉・鉱泉,0,0,0,4.8,0,0,5.8,0,0,0,0,0,0,0,0,0,0,0,8.05,0.899,0,0,0,3.767,4.605,0,0,0,0,0,0,0,0,0,0,0,0,20.59,0,0,0,0,0,0,0,0,4.038,0,0,0,0,20.07,0,0,0,0,0,0,0,0,8.1,0,0,0.0,0,0,0,0,0,0,0,mg/kg,0,秋田地熱資源図説明書，地質調査所，1996
磐梯熱海温泉,福島県,郡山市,熱海町熱海五丁目,http://www.bandaiatami.or.jp,4.27,5825,20,15,12,13,4,15,4,True,False,False,False,False,True,True,False,False,False,37.491392,140.256629,福島県,福島市飯坂町,140.0,26.0,18.0,37.0,50.0,10.0,0,井戸,温泉・鉱泉,0,0,0,64.5,209,0,8.3,0,0,0,0,0,0,0,0,0,0,0,253.9,5.3,0,0,0,1.7,39.6,0,0,0,0,0,0,0,0,0,0,0,0,137.3,0,0,0,0,0,0,0,0,415.3,0,0,0,0,52.8,0,0,0,0,0,0,0,0,0,0,0,0.0,0,0,0,0,0,0,0,0,0,新潟地熱資源図説明書，地質調査所，1993
いわき湯本温泉,福島県,いわき市,常磐湯本町,http://www.iwakiyumoto.or.jp,4.15,5195,17,15,12,5,1,13,0,True,True,True,True,True,True,False,False,False,False,37.0076668,140.8467882,福島県,福島県いわき市四倉町上仁井田,140.0,59.0,23.0,37.0,5.0,50.0,0,不明,温泉・鉱泉,0,0,0,<25,0,0,0,0,0,0,0,0,0,0,0,0,0,0,268.0,28.2,0,0,0,78.8,94.2,0,0,0,0,0,0,0,0,0,0,0,0,743.1,0,0,0,0,0,0,0,0,2.5,0,0,0,0,267.2,0,0,0,0,0,0,0,0,46.6,0,0,0.0,0,0,0,0,0,0,0,mg/kg,0,新潟地熱資源図説明書，地質調査所，1993
那須湯本温泉,栃木県,那須町,大字湯本,http://www.nasuonsen.com,4.10,2228,18,15,7,4,0,13,0,True,True,False,True,False,True,True,False,False,False,37.094196,140.002625,栃木県,那須郡那須町,140.0,0.0,16.0,37.0,6.0,16.0,0,不明,温泉・鉱泉,0,0,0,34.0,559.0,0,7.6,0,0,0,0,0,0,0,0,0,0,0,54.6,18.2,0,0,0,24.5,53.3,0,0,0,0,0,0,0,0,0,0,0,0,16.4,0,0,0,0,0,0,0,0,163.0,0,0,0,0,133.0,0,0,0,0,0,0,0,0,137.0,0,0,0.0,0,0,0,0,0,0,0,0,0,"新潟地熱資源図説明書,地質調査所,1993"
老神温泉,群馬県,沼田市,利根町老神,http://www.oigami.net,4.20,4548,17,15,10,12,2,15,0,True,False,True,True,False,False,False,False,False,False,36.672591,139.210266,群馬県,利根郡片品村,139.0,19.0,58.0,36.0,51.0,52.0,0,不明,温泉・鉱泉,0,0,0,38.5,0,0,0,6.2,0,0,0,0,0,0,0,0,0,0,734.5,18.8,0,0,0,163,96.2,0,0,0,0,0,0,0,0,0,0,0,0,0,0,0,0,0,0,0,0,0,40,0,0,0,0,1735,0,0,0,0,0,0,0,0,52.4,0,0,0.0,0,0,0,0,0,0,0,mg/kg,0,"新潟地熱資源図説明書,地質調査所,1993"
修善寺温泉,静岡県,伊豆市,修善寺,http://shuzenji.info,4.51,4605,18,15,12,11,4,13,6,True,False,False,False,False,False,False,False,False,False,34.9701534,138.9239397,静岡県,熱海市,139.0,4.0,13.0,35.0,5.0,52.0,0,井戸,温泉・鉱泉,300.0,0,0,63.0,0,0,8.0,0,0,0,0,9300.0,0,0,0,0,0,0,555.0,15.1,0,0,0,1.7,980.6,0,0,0.6,0,0,0,0.7,0,0,0,0,0,2155.8,0,0,0,0,0,0,0,0,629.2,0,0,0,0,21.4,0,0,0,0,0,0,0,0,0,0,8.2,0.0,0,0,0,0,0,0,0,0,1964,"熱海温泉の熱水系について,地調月報,1969"
堂ヶ島温泉,静岡県,西伊豆町,仁科,,4.46,6086,16,15,7,8,1,15,2,True,False,False,False,False,True,False,False,False,False,34.769611,138.77427,静岡県,根の湯,138.0,55.0,47.0,34.0,58.0,3.0,0,井戸,温泉・鉱泉,0,0,0,0,0,0,8.2,0,0,0,0,763.3560000000001,0,0,0,0,0,0,171.8,3.749,0,0,0,1.383,50.71,0,0,0,0,0,0,0,0,0,0,0,0,186.8,0,0,0,0,0,0,0,0,142.8,0,0,0,0,123,1.2429999999999999,0,0,0,0,0,0,0,0,0,0,0.0,0,0,0,0,0,0,0,0,1952,"伊豆修善寺温泉地域の地質及び温泉,地質学雑誌,1959"
稲取温泉,静岡県,東伊豆町,稲取,http://www.inatorionsen.or.jp,4.35,6111,15,15,11,9,5,14,2,True,True,False,False,False,False,False,True,False,False,34.771009,139.04671,静岡県,加茂郡東伊豆町,139.0,4.0,28.0,34.0,50.0,37.0,0,井戸,温泉・鉱泉,0,0,0,45.0,0,0,8.4,0,0,0,0,1244.0,0,0,0,0,0,0,355.0,6,0,0,0,2.4,25.9,0,0,0,0,0,0,0,0,0,0,0,0,429.4,0,0,0,0,0,0,0,0,208.3,0,0,0,0,160.4,0,0,0,0,0,0,0,0,0,0,0,0.0,0,0,0,0,0,0,0,0,1973,"熱川温泉および周辺地域の地温と化学成分,地熱,1978"
天ヶ瀬温泉,大分県,日田市,天瀬町湯山,http://www.okaeriamagase.com,4.32,1211,21,15,8,13,0,14,2,True,True,True,True,False,False,False,False,False,False,33.241178,131.031915,大分県,耶馬渓町深耶馬,131.0,10.0,10.0,33.0,22.0,53.0,210.0,井戸,温泉・鉱泉,500.0,0,25.4,47.0,30.0,0,8.0,8.63,0,0,0,508.0,0,0,0,0,0,0.08,131.0,27.0,0.08,0.02,0.34,1.72,7.43,0,0,0.0,0.06,0,0,0.02,0.0,0,0,0,0.2,48.1,0.19,0.02,0,0,0,0,0,0,2.1,0,0,0,0,336.0,0,0,0,0,0,0,0,0,116.0,0,0,0.0,0.0,239.0,0,0.0,0.0002,0,0.53,0,1984-09-05 00:00:00,"平成元年度 全国地熱資源総合調査 広域熱水流動調査（第3次）鶴見岳地域 流体地化学調査報告書(要旨),1990"
登別温泉,北海道,登別市,登別温泉町,http://www.noboribetsu-spa.jp/?lang=ja,4.23,13471,16,14,13,13,6,14,3,False,True,False,True,True,True,True,True,False,False,42.495933,141.141732,北海道,千歳市支笏湖オコタン,141.0,16.0,45.0,42.0,46.0,25.0,0,井戸,温泉・鉱泉,10,0,0,42.4,38.9,0,7.0,7.4,0,0,0,1433.0,0,0,0,0,0,0,288.0,43.3,0,0,0,28.2,100.0,0,0,0.05,0.44,0,0,0.73,0.013,0.17,0,0,1.2,350.5,0,0,0,0,0,0,0,0,260.9,0,0,0,0,356.2,0,0,0,0,0,0,0,0,159.9,0,38.2,0.0,0.04,45.3,0,0.307,0,0,0,0,1972-05-31 00:00:00,北海道の地熱・温泉（B）西南北海道北部、北海道立地下資源調査所、1977
瀬波温泉,新潟県,村上市,瀬波温泉二丁目,http://www.senami.or.jp,4.23,8050,15,14,11,9,3,14,0,False,True,False,False,False,False,False,False,False,False,38.2157214,139.4389424,新潟県,岩船郡関川村,139.0,35.0,3.0,38.0,5.0,49.0,0,不明,温泉・鉱泉,"44, 200",0,0,40.0,373.0,0,7.4,0,0,0,0,0,0,0,0,0,0,0,285.0,17,0,0,0,1.2,35.2,0,0,0,0,0,0,0,0,0,0,0,0,225.0,0,0,0,0,0,0,0,0,294,0,0,0,0,130.0,0,0,0,0,0,0,0,0,23.85,0,0,0.0,0,0,0,0,0,0,0,mg/kg,0,"新潟地熱資源図説明書,地質調査所,1993"
小浜温泉,長崎県,雲仙市,小浜町北本町,https://obama.or.jp/,4.21,3197,18,14,12,10,1,14,0,True,True,False,False,False,False,False,False,False,False,32.7187337,130.2016978,長崎県,有明町,130.0,19.0,53.0,32.0,51.0,3.0,0,井戸,温泉・鉱泉,460,0,11.8,37.6,200,0,8.2,8.2,0,0.9995,0,1015.0,0,0,0,0,0,0.4,384.0,2.6,0,0,1.2,1.7,5.3,0.3,0.1,0.5,0,0,0,0.4,0,0,0,0,0.5,3.8,0.3,0.1,0,0,0,0,0,0,0.2,0,0,0.2,0,1075.0,36.0,0,0,0,0,0,0,0,0,29.1,3.2,0.0,1.1,10.1,0,0,0,0,0,mg/kg,1992-01-11 00:00:00,"長崎県の温泉（第26報）,長崎県衛生公害研究所報 第41号,1995"
杖立温泉,熊本県,日田市,天瀬町出口,http://tsuetate-onsen.com,4.33,2710,19,14,9,7,10,12,1,True,True,True,False,False,False,False,False,False,False,33.1832480566406,131.033203125,熊本県,0,131.0,2.0,11.0,33.0,10.0,43.0,0,井戸,温泉・鉱泉,0,0,0,98.5,99.5,0,8.3,0,0,0.9995,0,1952.0,0,0,0,0,0,0.04,564.2,66.8,0,0,0.7,16.2,24.05,0,0,0.52,0.13,1.02,0,1.02,0.09,0.38,0.1,0,7.9,903.14,0,0,0.03,0,0,0.28,0.01,0,117.36,0,0.02,0.38,0,22.99,0.15,5.47,0,3.18,0,0,0.91,0.08,0,159.2,54.15,0.0,0.03,0.55,0,0,0,0,0,mg/kg,1964-11-24 00:00:00,"熊本県鉱泉誌 第Ⅱ巻,熊本県衛生公害研究所報,1978"
洞爺湖温泉,北海道,壮瞥町,字洞爺湖温泉,http://www.laketoya.com,3.97,12106,14,13,12,11,6,13,0,True,True,True,False,True,True,False,False,False,False,42.56529,140.8260773,北海道,札幌市南区薄別,141.0,8.0,30.0,42.0,56.0,30.0,0,湧泉,温泉・鉱泉,0,0,0,35.0,12.8,0,6.2,7.8,0,0,0,912.0,0,0,0,0,0,0,96.3,31.2,0,0,0,38.7,158.6,0,0,0.06,1.54,0.04,0,0.04,0.002,0.003,0,0,0.55,30.0,0,0,0,0,0,0,0,0,65.2,0,0,0,0,867.4,0,0,0,0,0,0,0,0,35.5,0,10.8,0.0,0,62,0,0.22,0,0,0,0,1972-09-30 00:00:00,北海道の地熱・温泉（B）西南北海道北部、北海道立地下資源調査所、1977
鶯宿温泉,岩手県,雫石町,鴬宿,http://www.ousyukuonsen.com,3.88,4084,18,13,9,6,3,11,1,True,False,False,True,False,False,False,False,False,False,39.6346755163574,140.920715332031,岩手県,岩手郡松尾村寄木,141.0,1.0,47.0,39.0,54.0,42.0,0,不明,温泉・鉱泉,0,0,0,27,0,0,7.67,0,0,0,0,0,0,0,0,0,0,0,125.0,8.5,0,0,0,46.3,50.0,0,0,0,0,0,0,0,0,0,0,0,0,81.0,0,0,0,0,0,0,0,0,251.0,0,0,0,0,296.0,0,0,0,0,0,0,0,0,45.7,0,0,0.0,0,0,0,0,0,0,0,0,0,秋田地熱資源図説明書，地質調査所，1996
天童温泉,山形県,天童市,鎌田本町二丁目,http://www.tendoonsen.or.jp,4.16,4566,14,13,14,10,2,14,2,True,False,False,False,True,True,False,False,False,False,38.358925,140.386285,山形県,尾花沢市銀山新畑,140.0,32.0,8.0,38.0,34.0,5.0,0,不明,温泉・鉱泉,0,0,0,62.4,0,0,7.5,0,0,0,0,0,0,0,0,0,0,0,687.0,54.1,0,0,0,2.32,65.2,0,0,0,0,0,0,0,0,0,0,0,0,900.0,0,0,0,0,0,0,0,0,293,0,0,0,0,135.0,0,0,0,0,0,0,0,0,69.5,0,0,0.0,0,0,0,0,0,0,0,0,0,秋田地熱資源図説明書，地質調査所，1996
湯西川温泉,栃木県,日光市,湯西川,,4.32,7234,16,13,11,11,0,14,0,True,False,False,False,False,False,False,False,False,False,36.9628079,139.5840423,栃木県,那須郡那須町,139.0,57.0,10.0,37.0,3.0,51.0,0,不明,温泉・鉱泉,600.0,0,0,30.1,222.0,0,8,0,0,0,0,0,0,0,0,0,0,0,83.6,7.9,0,0,0,7.3,10.6,0,0,0,0,0,0,0,0,0,0,0,0,24.2,0,0,0,0,0,0,0,0,65.0,0,0,0,0,120.0,0,0,0,0,0,0,0,0,88.0,0,0,0.0,0,0,0,0,0,0,0,0,0,"新潟地熱資源図説明書,地質調査所,1993"
下部温泉,山梨県,身延町,上之平,http://www.shimobe.org,4.21,2328,18,13,7,3,2,14,0,True,True,False,True,False,False,False,False,False,False,35.4204,138.481111,山梨県,石和地区No.９.,138.0,39.0,2.0,35.0,39.0,47.0,0,不明,温泉・鉱泉,146,0,0,47.2,0,0,8.6,0,0,0,0,0,0,0,0,0,0,0,222,0,0,0,0,0,37,0,0,0,0,0,0,0,0,0,0,0,0,296,0,0,0,0,0,0,0,0,150,0,0,0,0.368,32,0.8,0,0,0,0,0,0,0,0,0,0,0.0,0,0,0,0,0,0,0,0,1962,山梨県甲府盆地の温泉の地球化学的研究－定期観測の温泉－，東邦大学教養紀要，1991
月岡温泉,新潟県,新発田市,月岡温泉,http://www.tsukiokaonsen.gr.jp,4.44,7209,16,13,13,11,5,13,4,False,True,False,True,True,True,False,False,False,False,37.880062,139.30806,新潟県,北蒲原郡黒川村,139.0,29.0,19.0,38.0,1.0,35.0,0,不明,温泉・鉱泉,550,0,0,25.6,2.0,0,8.8,0,0,0,0,0,0,0,0,0,0,0,505.3,20.6,0,0,0,1.1,0.8,0,0,0,0,0,0,0,0,0,0,0,0,249.1,0,0,0,0,0,0,0,0,13,0,0,0,0,846.1,0,0,0,0,0,0,0,0,22.0,0,0,0.0,0,0,0,0,0,0,0,mg/kg,0,"新潟地熱資源図説明書,地質調査所,1993"
蓼科温泉,長野県,茅野市,北山,,4.20,5568,13,13,9,9,4,13,1,True,True,False,False,True,True,True,False,False,False,36.0491925,138.2557814,長野県,No.1,138.0,22.0,20.0,36.0,0.0,30.0,0,不明,温泉・鉱泉,0,0,0,42,0,0,3.2,0,0,0,0,1750.0,0,0,-300.0,0,0,0,82.0,3.0,0,0,0,0,160.0,0,0,0,0,0,0,0,0,0,0,0,0,7.84,0,0,0,0,0,0,0,0,0,0,0,0,0,0,0,0,0,0,0,0,0,0,0,0,0,0.0,0,0,0,0,0,0,0,0,0,"中部地方における温泉水中のホウ素の地球化学的研究（第２報）,地球化学,1984"
内海温泉,愛知県,南知多町,大字内海,http://utsumikannkou.main.jp,3.91,2603,17,13,14,9,2,16,0,True,True,False,False,False,False,False,False,False,False,34.7315944,136.8724887,愛知県,西加茂郡猿投町加納大角豆洞31,137.0,10.0,13.0,35.0,9.0,1.0,0,湧泉,温泉・鉱泉,0,0,34.0,24.4,3.9,0,5.8,0,0,0,0,92.2,0,0,0,0,0.002,0,9.115,0.9009999999999999,0,0,0,1.489,7.572,0,0,0.223,0.15,4.195,0,0,0,0,0,0,0.301,12.6,0,0,0,0,0,0,0,0,4.537,0,0,0,0,38.26,0,0,0,0,0,0,0,0,0,0,0,0.0,2.525,147.2,0,0,0,0,0,0,1963.11.28.,"愛知県地方鉱泉の分析成績について（第３報）,愛知衛研所報告,1967"
湯の山温泉,三重県,菰野町,大字菰野,http://www.yunoyama-onsen.com,4.16,4636,13,13,11,9,3,13,0,True,True,True,True,False,True,False,False,False,False,35.015818,136.447384,三重県,桑名郡木曾岬村源緑二の割,136.0,44.0,40.0,35.0,3.0,20.0,0,井戸,温泉・鉱泉,1650.0,0,0,51.8,886.0,0,8.5,0,0,0.995,0,317.4,0,0,0,0,0,0,69.26,41.48,0,0,0.001,15.33,16.19,0,0,0.379,0.0,11.4,0,0,0,0,0,0,0,47.93,0,0,0.054000000000000006,0,0,0,0,0,2.517,0,0,0,0,278.3,5.136,0,0,0.321,0,0,0,0,0,0,1.81,0.0,0.017,1.945,0,0,0,0,0,0,1966.10.,"温泉の泉質に関する調査研究（第３報）,温泉工学会誌,1971"
勝浦温泉,和歌山県,那智勝浦町,大字勝浦,http://katsuuraonsen.jp,4.02,11037,13,13,8,6,1,13,1,True,True,False,True,False,False,False,False,False,False,33.6299999,135.9434055,和歌山県,中ノ島本館,135.0,56.0,46.0,33.0,37.0,43.0,0,不明,温泉・鉱泉,200.0,0,13.0,56.5,0,0,8.8,0,0,0,0,0,0,0,0,0,0,0,426,9,0,0,0,3.1,126.5,0,0,0,0,0,0,0,0,0,0,0,0,886.8,0,0,0,0,0,0,0,0,63.8,0,0,0,0,71.4,13.2,0,0,0,0,0,0,0,0,0,0,0.0,24.3,0,0,0,0,0,0,0,0,"紀伊半島中南部地方の温泉群について,地調月報,1958"
湯本温泉,山口県,長門市,深川湯本,http://yumotoonsen.com,4.04,4034,13,13,12,8,2,11,1,True,False,False,False,False,False,False,False,False,False,34.329467,131.17202,山口,0,131.0,10.0,40.0,34.0,19.0,30.0,0,不明,温泉・鉱泉,0,0,0,41.0,0,0,9.3,0,0,0,0,0,0,0,0,0,0,0,44.4,1.5,0,0,0,0.2,1.9,0,0,0,0,0,0,0,0,0,0,0,0,0,0,0,0,0,0,0,0,0,17.4,0,0,0,0,0,0,0,0,0,0,0,0,0,0,0,0,0.0,0,0,0,0,0,0,0,0,1963,"日本の熱水系の水素，酸素の同位元素比と主成分化学について,地球科学ジャーナル1973"
古湯温泉,佐賀県,佐賀市,富士町大字古湯,http://www.fuji-spa.com,4.38,1428,14,13,10,6,2,13,1,True,False,False,False,False,True,False,False,False,False,33.372208,130.208156,佐賀県,0,130.0,28.0,32.0,33.0,24.0,29.0,0,不明,温泉・鉱泉,160.0,0,20.0,18.8,300.0,0,7.5,0,0,0.9986,0,0.147,0,0,0,0,0,0,18.0,0.8,0,0,0,1.8,19.2,0,0,0.3,0,0.2,0,0,0,0,0,0,0.3,7.2,0,0,0,0,0,0,0,0,2.2,0,0,0,0,112.0,0,0,0,0,0,0,0,0,0,46.4,0,0.0,0,15.1,0,0,0,0,0,mg/kg,1985-10-23 00:00:00,"佐賀県の温泉について（第16報）,佐賀県衛生研究所報,1991"
長湯温泉,大分県,竹田市,直入町大字長湯,http://www.nagayu-onsen.com/index.php,4.55,1097,15,13,9,11,2,12,1,True,False,True,False,False,False,False,True,True,False,33.073009,131.373415,大分県,野津原町,131.0,33.0,4.0,33.0,7.0,37.0,0,湧泉,温泉・鉱泉,0,0,0,8.0,0,0,6.47,0,0,0,0,0,0,0,0,0,0,0,208.0,15.4,0,0,0,33.7,72.6,0,0,0,0,0,0,0,0,0,0,0,0,130.3,0,0,0,0,0,0,0,0,4.2,0,0,0,0,852.0,0,0,0,0,0,0,0,0,0,0,0,0.0,0,0,0,0,0,0,0,0,1981-12-17 00:00:00,"庄内町とその周辺温鉱泉の化学組成,大分県温泉調査研究会報告第37号,1986"
阿蘇内牧温泉,熊本県,阿蘇市,内牧,http://onsen.aso.ne.jp,4.08,4359,17,13,11,8,1,13,1,True,False,True,True,True,True,False,False,False,False,32.9756682,131.0444924,熊本県,豊肥地域,131.0,5.0,50.0,33.0,4.0,10.0,0,井戸,温泉・鉱泉,0,0,0,42.1,0,0,6.5,0,0,0,0,0,0,0,0,0,0,0,128.0,33.2,0,0,0,28.0,59.8,0,0,0,0,0,0,0,0,0,0,0,0,155.0,0,0,0,0,0,0,0,0,124.0,0,0,0,0,106.0,0.0,0,0,0,0,0,0,0,148.0,0,0,0.0,0,0,0,0,0,0,0,mg/L,0,"地熱流体の化学に基づく豊肥地域熱水系の概念的モデル,地質調査所報告,1985"
小野川温泉,山形県,米沢市,小野川町,http://www.onogawa.jp/index.html/,4.30,2030,14,12,12,8,1,12,1,False,True,False,True,False,True,False,False,False,False,37.8800035,140.0546559,山形県,東置賜郡高畠町一本柳字契約壇,140.0,10.0,43.0,38.0,0.0,17.0,0,井戸,温泉・鉱泉,1300.0,0,0,41.5,300.0,0,8.8,0,0,0,0,0,0,0,0,0,0,0,101.2,1.0,0,0,0,0.1,3.0,0,0,0,0,0,0,0,0,0,0,0,0,67.8,0,0,0,0,0,0,0,0,20.1,0,0,0,0,139.9,0,0,0,0,0,0,0,0,35.3,0,0,0.0,0,0,0,0,0,0,0,0,0,秋田地熱資源図説明書，地質調査所，1996
湯の小屋温泉,群馬県,みなかみ町,藤原,,4.11,3033,12,12,3,6,1,12,0,True,False,False,True,False,False,False,False,False,False,36.8496109,139.0665544,群馬県,0,139.0,5.0,20.0,36.0,52.0,10.0,0,不明,温泉・鉱泉,0,0,0,67.9,0,0,7.2,0,0,0,0,0,0,0,0,0,0,0,0,0,0,0,0,0,0,0,0,0,0.07,0,0,0.0,0,0,0,0,0,0,0,0,0,0,0,0,0,0,0,0,0,0,0,0,0,0,0,0,0,0,0,0,0,0,0,0.0,0,0,0,0,0,0,0,0,1978-08-21 00:00:00,"フォッサ・マグナ北部における温泉の地質学的・地球化学的研究（その３）,温泉工学会誌,1980"
白子温泉,千葉県,白子町,中里,http://www.shirako-onsen.jp,4.29,1593,15,12,12,6,0,12,1,False,True,False,False,False,False,False,False,False,False,35.4325418,140.3950717,千葉県,0,140.0,39.0,20.0,35.0,41.0,17.0,0,不明,温泉・鉱泉,0,0,0,25.2,0,0,7.41,0,0,0,0,33400.0,0,0,0,0,0,0,11000.0,265.0,0,0,124,538.0,237.0,0,0,0,0,0,0,0,0,0,0,0,0,0,97.8,51,0,0,0.01,0,0,0,0.82,0,0,0,0,940.0,0,0,0,0,0,0,0,0,66.12,0,11.3,0.0,0,0,0,0,0,0,0,0,1991.3.,"千葉県の温泉の化学,温泉科学　第42巻,1991"
大平台温泉,神奈川県,箱根町,大平台,http://www.ohiradai.com,4.24,632,14,12,4,9,0,10,0,True,True,False,False,False,True,False,False,False,False,35.2371655,139.0734681,神奈川県,松田町寄１番１２３,139.0,9.0,40.0,35.0,21.0,40.0,134.0,井戸,温泉・鉱泉,700.0,0,0,24.3,74.88,0,6.4,0,0,0,0,6029.0,0,0,0,0,0,0.06,782.0,5.59,0,0,0,0.17,1245.0,0,0,0,0.14,1.47,0,0,0,0,0,0,0,2595.0,0,0,0,0,0,0,0,0,1139,0,0,0,0,9.8,0,0,0,0,0,0,0,0,0,0,9.1,0.0,0,4.05,0,0,0,0,0,0,1974.9.11.,"松田町寄（やどろぎ）の塩化カルシウム型温泉（冷鉱泉）,神奈川県温研報告,1976"
芦ノ湖温泉,神奈川県,箱根町,元箱根,,4.15,2864,13,12,8,7,1,11,2,True,False,False,True,False,False,False,False,False,False,35.1991336,139.0308179,神奈川県,箱根大涌谷,139.0,1.0,10.0,35.0,14.0,20.0,0,井戸,温泉・鉱泉,0,0,0,0,0,0,0,0,0,0,0,0,0,0,0,0,1400,0,5000.0,0,0,0,0,4000.0,400.0,0,0,7140,1340,3770,0,0,0,0,0,0,0,68800.0,13.5,0.4,0,0,0,0,0,0,84000,0,0,0,0,0,0,0,0,0,0,0,0,0,0,0,470,0.0,0,0,0,0,0,0,0,0,1960,"温泉の化学成分,温泉科学,1978"
美ヶ原温泉,長野県,松本市,大字里山辺,https://www.mcci.or.jp/www/utsukushi/,4.35,5132,13,12,10,9,2,12,0,True,False,False,False,False,False,False,False,False,False,36.249425,137.997586,長野県,0,138.0,6.0,30.0,36.0,22.0,0.0,0,不明,温泉・鉱泉,0,0,0,36,0,0,9.3,0,0,0,0,0,0,0,0,0,0,0,52.0,1.0,0,0,0,4.4,20.0,0,0,0,0,0,0,0,0,0,0,0,0,53.1,0,0,0,0,0,0,0,0,79.8,0,0,0,0,9.6,9.0,0,0,0,0,0,0,0,0,0,0,0.0,0,0,0,0,0,0,0,0,1955.3.,"長野県浅間温泉調査報告,地調月報,1957"
日田温泉,大分県,日田市,隈一丁目,http://www.hita-onsen.com,4.28,3379,14,12,9,8,3,14,1,True,True,True,False,False,True,False,False,False,False,33.295183,130.934847,大分県,0,131.0,1.0,52.0,33.0,15.0,10.0,0,不明,温泉・鉱泉,0,0,0,35.4,0,0,7.71,0,0,0,0,0,0,0,0,0,0,0,105.0,9.4,0,0,0,2.2,16.5,0,0,0,0,0,0,0,0,0,0,0,0,109.0,0,0,0,0,0,0,0,0,44.4,0,0,0,0,108.0,0,0,0,0,0,0,0,0,0,0,0,0.0,0,0,0,0,0,0,0,0,1981-02-24 00:00:00,"天ヶ瀬温泉の現況,大分県温泉調査研究会報告第36号,1985"
宝泉寺温泉,大分県,九重町,大字町田,http://www.housenji.jp,4.19,1701,15,12,6,12,0,12,1,True,True,False,False,False,False,False,False,False,False,33.1867313,131.146892,大分県,玖珠郡九重町大字野上,131.0,15.0,18.0,33.0,14.0,15.0,547.0,井戸,温泉・鉱泉,140.0,0,24.1,34.2,160.0,0,9.2,8.94,0,0,0,170.0,0,0,0,0,0,0.04,45.0,0.48,0.0,0.04,0.0,0.07,0.13,0,0,0.58,0.0,0,0,0.11,0.0,0.0,0.0,0,0.27,2.64,0.0,0.0,0,0,0,0,0,0,11.0,0,0,0,0,121.0,0,0,0,0,0,0,0,0,47.1,0,0,0.0,0.0,44.3,0,0.03,0.0003,0,0.0,0,1983-09-20 00:00:00,"平成元年度 全国地熱資源総合調査 広域熱水流動調査（第3次）鶴見岳地域 流体地化学調査報告書(要旨),1990"
人吉温泉,熊本県,人吉市,上青井町,http://hitoyoshionsen.net,4.15,3239,19,12,8,5,2,15,0,True,True,True,False,True,True,False,False,False,False,32.2047223,130.759982,熊本県,0,130.0,58.0,34.0,32.0,16.0,9.0,0,不明,温泉・鉱泉,0,0,0,19.0,1.6,0,7.72,0,0,1.0006,0,3092.9,0,0,0,0,0,3.41,1049.4,6.2,0,0,1.83,9.0,29.98,0,0,0.02,0.02,3.97,0,3.97,0,0.02,0.02,0,1.24,1252.4,2.97,0.4,0.01,0,0,0.47,0.02,0,1.81,0,0,0.02,0,850.59,2.35,0.19,0,0.32,0,0,0,0,0,18.99,10.87,0.0,0.11,38.24,0,0,0,0,0,mg/kg,1973-12-15 00:00:00,"熊本県鉱泉誌 第Ⅱ巻（補遺）,熊本県衛生公害研究所報,1980"
別所温泉,長野県,上田市,別所温泉,http://www.bessho-spa.jp/,4.39,3362,12,12,9,10,2,12,4,False,False,False,True,False,False,False,False,False,False,36.3490949,138.1600297,長野県,長野市,138.0,17.0,3.0,36.0,34.0,35.0,0,不明,温泉・鉱泉,0,0,0,33.8,1010.0,0,6.8,0,0,0,0,0,0,0,0,0,0,0,115.3,5.5,0,0,0,1.7,349.2,0,0,0,0,0,0,0,0,0,0,0,0,268.3,0,0,0,0,0,0,0,0,594.1,0,0,0,0,167.9,0,0,0,0,0,0,0,0,31.9,0,0,0.0,0,0,0,0,0,0,0,mg/kg,0,新潟地熱資源図説明書，地質調査所，1993
湯川温泉,岩手県,西和賀町,湯川,http://www.yamanoideyu.com/stay/index.html,4.34,1079,12,11,7,5,0,11,1,True,True,False,False,True,False,False,False,False,False,39.284519,140.771759,岩手県,花巻市鉛字中平,140.0,59.0,52.0,39.0,27.0,35.0,0,井戸,温泉・鉱泉,300,0,0,54.5,0,0,8.2,0,0,0,0,0,0,0,0,0,0,0,166.0,2.3,0,0,0,0.0,11.0,0,0,0,0,0,0,0,0,0,0,0,0,57.2,0,0,0,0,0,0,0,0,220.0,0,0,0,0,79.4,0,0,0,0,0,0,0,0,33.9,0,0,0.0,0,0,0,0,0,0,0,0,0,秋田地熱資源図説明書，地質調査所，1996
さくらんぼ東根温泉,山形県,東根市,温泉町一丁目,http://www.higashineonsen.com,4.04,893,14,11,9,4,1,9,0,True,True,True,True,True,False,False,False,False,False,38.458558,140.389743,山形県,最上郡最上町堺田字笹塚,140.0,35.0,21.0,38.0,44.0,14.0,0,井戸,温泉・鉱泉,700.0,0,0,53,169.0,0,9.2,0,0,0,0,0,0,0,0,0,0,0,101.0,0.9,0,0,0,0,5.8,0,0,0,0,0,0,0,0,0,0,0,0,24.7,0,0,0,0,0,0,0,0,136,0,0,0,0,41.1,0,0,0,0,0,0,0,0,43.4,0,0,0.0,0,0,0,0,0,0,0,0,0,秋田地熱資源図説明書，地質調査所，1996
両津温泉,新潟県,佐渡市,原黒,,3.82,1077,12,11,9,5,0,11,0,False,True,True,False,False,False,False,False,False,False,38.0711150305176,138.451431274414,新潟県,両津市,138.0,28.0,22.0,38.0,3.0,41.0,0,不明,温泉・鉱泉,1000,0,0,40.0,400.0,0,0,8.1,0,0,0,0,0,0,0,0,0,0,552.8,36.7,0,0,0,10.2,42.9,0,0,0,0,0,0,0,0,0,0,0,0,723.3,0,0,0,0,0,0,0,0,100.8,0,0,0,0,11.2,0,0,0,0,0,0,0,0,50.3,0,0,0.0,0,0,0,0,0,0,0,mg/kg,0,"新潟地熱資源図説明書,地質調査所,1993"
間人温泉郷,京都府,京丹後市,丹後町間人,,4.48,1244,11,11,9,7,1,11,3,True,False,False,False,True,True,False,False,False,False,35.7173118,135.0732574,,,,,,,,,,,,,,,,,,,,,,,,,,,,,,,,,,,,,,,,,,,,,,,,,,,,,,,,,,,,,,,,,,,,,,,,,,,,,,,,,,,,,
天橋立温泉,京都府,宮津市,字文珠,,4.11,3348,11,11,9,9,1,11,3,False,True,True,False,False,False,False,True,False,False,35.5592165,135.1804786,,,,,,,,,,,,,,,,,,,,,,,,,,,,,,,,,,,,,,,,,,,,,,,,,,,,,,,,,,,,,,,,,,,,,,,,,,,,,,,,,,,,,
洲本温泉,兵庫県,洲本市,海岸通一丁目,,4.21,12645,11,11,9,10,9,10,3,True,True,False,False,True,True,False,False,False,False,34.3430009,134.899726,兵庫,0,135.0,1.0,0.0,34.0,34.0,34.0,0,井戸,温泉・鉱泉,1165.0,0,0,34.1,0,0,7.56,0,15.4,0,0,297.0,0,0,0,0,0,0.0,44.0,7.0,0,0,0,3.3,6.7,0.0,0,0,0,0.34,0,0,0,0,0,0,0.81,43.3,0,0,0,0,0,0,0,0,2.0,0,0,0,0,83.2,0,0,0,0,0,0,0,0,0,50.6,1.1,0.0,0,0,3.84,0,0,0,0,mg/kg,1983.10.28.,"花崗岩および和泉層群を湧出母岩とする淡路の温泉について,兵庫県立衛生研究所年報　第31号,1996"
龍神温泉,和歌山県,田辺市,龍神村龍神,http://www.ryujin-kanko.jp/contents/spa/index.html,4.51,1734,11,11,6,3,0,11,0,False,False,True,False,False,False,False,False,False,False,33.949218,135.570558,和歌山県,須賀郡打田町,135.0,20.0,52.0,34.0,16.0,44.0,0,不明,温泉・鉱泉,0,0,0,18.2,1.4,0,9,9.0,0,0,0,0,0,0,0,0,0,0,0,0,0,0,0,0.1,2.4,0,0,0,0,0,0,0,0,0,0,0,0,3.8,0,0,0,0,0,0,0,0,15,0,0,0,0,52.8,26.6,0,0,0,0,0,0,0,0,0,0,0.0,0,0,0,0,0,0,0,0,0,"阪神地域および紀伊半島西部地域のヘリウム資源について,地調月報,1969"
湯郷温泉,岡山県,美作市,湯郷,http://spa-yunogo.or.jp,4.11,5502,12,11,11,9,2,11,0,False,True,False,False,True,False,False,False,False,False,35.005511,134.128138,岡山県,鷺の湯一号源泉,134.0,8.0,9.0,34.0,59.0,34.0,0,不明,温泉・鉱泉,0,0,0,46.8,0,0,7.4,0,0,0,0,0,0,0,0,0,0,0,0,0,0,0,0,0,0,0,0,0,0,0,0,0,0,0,0,0,0,0,0,0,0,0,0,0,0,0,0,0,0,0,0,0,0,0,0,0,0,0,0,0,0,0,0,0.0,0,0,0,0,0,0,0,0,0,"鉱泉中のラジウム、ラドン同時定量に関する研究その１,温泉科学,1978"
武雄温泉,佐賀県,武雄市,武雄町大字昭和,http://www.takeo-kk.net,4.19,3786,13,11,9,6,2,11,1,True,False,False,False,False,False,False,False,False,False,33.184473,130.033174,佐賀県,0,130.0,4.0,33.0,33.0,19.0,0.0,0,不明,温泉・鉱泉,0,0,15.0,26.6,0,0,9.6,0,0,0.9987,0,209.0,0,0,0,0,0,0,54.6,0.5,0,0,0,0.9,2.0,0,0,0.6,0,2.8,0,0,0,0,0,0,1.4,14.2,0,0,0.7,0,0,0,0,0,14.1,0,0,0,0,20.5,47.6,0,0,4.3,0,0,0,0,0,69.9,0,0.0,0,0,0,0,0,0,0,mg/kg,1987-03-12 00:00:00,"佐賀県の温泉について（平成2年度；第17報）,佐賀県衛生研究所報,1991"
雲仙温泉,長崎県,雲仙市,小浜町雲仙,http://www.unzen.org,4.44,3829,12,11,9,10,4,12,3,True,False,False,True,True,True,True,True,False,False,32.735132,130.260088,長崎県,有明町,130.0,19.0,53.0,32.0,51.0,3.0,0,井戸,温泉・鉱泉,460,0,11.8,37.6,200,0,8.2,8.2,0,0.9995,0,1015.0,0,0,0,0,0,0.4,384.0,2.6,0,0,1.2,1.7,5.3,0.3,0.1,0.5,0,0,0,0.4,0,0,0,0,0.5,3.8,0.3,0.1,0,0,0,0,0,0,0.2,0,0,0.2,0,1075.0,36.0,0,0,0,0,0,0,0,0,29.1,3.2,0.0,1.1,10.1,0,0,0,0,0,mg/kg,1992-01-11 00:00:00,"長崎県の温泉（第26報）,長崎県衛生公害研究所報 第41号,1995"
山鹿温泉,熊本県,山鹿市,宗方通,http://www.y-kankoukyoukai.com,4.14,1928,12,11,8,4,0,10,0,True,False,False,False,False,True,False,False,False,False,33.0149929,130.6823459,熊本県,0,130.0,47.0,40.0,33.0,1.0,2.0,0,井戸,温泉・鉱泉,0,0,0,42.9,100.8,0,9.15,0,0,1.0001,0,324.5,0,0,0,0,0,0,79.96,3.7,0,0,0.77,0.17,9.28,0,0,0.06,0.09,0.26,0,0.26,0.02,0,0,0,1.9,14.89,0,0,11.95,0,0,0,0,0,36.99,0,0,0.05,0,109.55,9.67,0.01,0,0.02,0,0,0.07,0,0,40.23,5.08,0.0,0,0,0,0,0,0,0,mg/kg,1962-04-01 00:00:00,"熊本県鉱泉誌 第Ⅱ巻,熊本県衛生公害研究所報,1978"
下田温泉,熊本県,天草市,天草町下田北,http://amakusa-shimoda-onsen.jp,4.11,1839,11,11,9,6,0,11,1,True,True,True,False,False,False,False,False,False,False,32.4241691,130.0101946,熊本県,0,130.0,2.0,10.0,32.0,52.0,43.0,0,井戸,温泉・鉱泉,0,0,0,43.2,165,0,5.98,0,0,1.0006,0,1082.3,0,0,0,0,0,0,120.0,9.5,0,0,1.5,17.82,144.34,0,0,0.49,0.14,3.9,0,3.9,0.06,0.02,0,0,0.35,209.0,0,0,0,0,0,0,0,0,53.67,0,0,0,0,438.93,0.31,0.37,0,0.03,0,0,0.01,0,0,78.6,0.27,0.0,0.03,127.6,0,0,0,0,0,mg/kg,1962-08-21 00:00:00,"熊本県鉱泉誌 第Ⅱ巻,熊本県衛生公害研究所報,1978"
利尻富士温泉,北海道,利尻富士町,鴛泊,,4.33,761,10,10,4,2,0,10,0,False,True,True,False,False,False,False,False,False,False,45.24479,141.22674,北海道,稚内市近布,141.0,38.0,37.0,45.0,25.0,9.0,0,井戸,温泉・鉱泉,1004,0,0,35.0,50.9,0,7.5,8.2,0,0,0,21172.0,0,0,0,0,0,0,8408.0,41.0,0,0,0,33.4,61.1,0,0,1.1,0.04,3.26,0,3.26,0,0,0,0,0.49,9354.0,0,0,0,0,0,0,0,0,0.0,0,0,0,0,6631.0,0,0,0,0,0,0,0,0,20.2,0,447.2,0.0,0.03,195.8,0,0,0,0,0,0,1973-09-30 00:00:00,"北海道の地熱・温泉（C）北海道中央部、北海道立地下資源調査所,1979"
ウトロ温泉,北海道,斜里町,ウトロ東,,4.29,5443,11,10,8,7,3,10,0,True,True,True,False,False,False,False,False,False,False,44.0722822,144.9933683,北海道,斜里町幌別,145.0,0.0,54.0,44.0,4.0,33.0,0,井戸,温泉・鉱泉,ボーリング,0,0,42.3,41.7,0,8.7,8.7,0,0,0,1284.0,0,0,0,0,0,0,492.0,7.8,0,0,0,3.3,4.6,0,0,0.11,0.01,0,0,0.07,0,0,0,0,1.38,290.8,0,0,0,0,0,0,0,0,3.0,0,0,0,0,871.1,3.3,0,0,0,0,0,0,0,28.6,0,6.7,0.0,0,0,0,0.009,0,0,0,0,1974-05-31 00:00:00,"北海道の地熱・温泉（D）北海道東部,北海道立地下資源調査所,1982"
層雲峡温泉,北海道,上川町,字層雲峡,http://www.sounkyo.net,3.53,6618,10,10,8,8,5,10,0,True,False,True,True,False,False,False,False,False,False,43.7256743,142.9466719,北海道,白滝村西区,143.0,9.0,56.0,43.0,52.0,9.0,0,井戸,温泉・鉱泉,125,0,0,22.8,0,0,7.6,7.7,0,0,0,197.0,0,0,0,0,0,0,34.6,3.0,0,0,0,2.7,5.0,0,0,0.13,0.13,0.15,0,0.15,0.002,0.002,0,0,0.38,21.5,0,0,0,0,0,0,0,0,2.0,0,0,0,0,90.3,0,0,0,0,0,0,0,0,78.9,0,9.4,0.0,0,2.9,0,0,0,0,0,0,1973-04-30 00:00:00,"北海道の地熱・温泉（C）北海道中央部、北海道立地下資源調査所,1979"
阿寒湖温泉,北海道,釧路市,阿寒町阿寒湖温泉二丁目,http://akanko-spa.jp,4.06,4777,13,10,7,6,2,9,1,True,True,True,False,False,False,False,False,False,False,43.434637,144.0898141,北海道,美幌町端治,144.0,7.0,30.0,43.0,51.0,30.0,0,井戸,温泉・鉱泉,1003,0,0,43.1,109.7222222222222,0,9.0,9,0,0,0,2622.0,0,0,0,0,0,0,749.0,55.4,0,0,0,0.6,16.7,0,0,0,0,0.07,0,0.07,0,0,0,0,9.13,1120.0,0,0,0,0,0,0,0,0,96.9,0,0,0,0,73.8,11.4,0,0,0,0,0,0,0,119.1,0,21.1,0.0,0.03,0,0,0,0,0,0,0,1982.9.,"北海道の地熱・温泉,地下資源調査所調査研究報告第16号,1985"
浅虫温泉,青森県,青森市,大字浅虫,http://www.asamushi.com/,4.23,3740,11,10,8,7,1,8,0,True,True,False,False,True,True,False,False,False,False,40.888935,140.862502,青森県,むつ市城ヶ沢字武士川,141.0,7.0,17.0,41.0,13.0,55.0,0,不明,温泉・鉱泉,不明,0,22.0,48.3,450,0,6.88,0,0,0,1.013,19.44,0,0,0,0,0,0,6080.0,395.0,0,0,1.4,210.4,932.3,0,0,0.0,6.6,3.1,0,0,0,0,0,0,0.4,11200.0,14.8,5.4,0,0,0,0,0,0,1270.0,0,0,0.3,0,36.6,24.0,0,0,0,0,0,0,0,0,195.5,81.1,0.0,0,0,0,0,0,0,0,0,1982-07-19 00:00:00,青森県の温泉，青森県衛生研究所報No.20，1983
田沢湖高原温泉郷,秋田県,仙北市,田沢湖生保内,http://tazawakokougen.jp,4.13,2033,12,10,8,5,0,10,0,False,False,True,True,True,True,False,False,False,False,39.7807213,140.7628296,,,,,,,,,,,,,,,,,,,,,,,,,,,,,,,,,,,,,,,,,,,,,,,,,,,,,,,,,,,,,,,,,,,,,,,,,,,,,,,,,,,,,
銀山温泉,山形県,尾花沢市,大字銀山新畑,http://www.ginzanonsen.jp,4.56,1017,10,10,6,4,0,8,0,False,True,True,True,True,True,False,False,False,False,38.5693874,140.5317533,山形県,最上郡最上町堺田字笹塚,140.0,35.0,21.0,38.0,44.0,14.0,0,井戸,温泉・鉱泉,700.0,0,0,53,169.0,0,9.2,0,0,0,0,0,0,0,0,0,0,0,101.0,0.9,0,0,0,0,5.8,0,0,0,0,0,0,0,0,0,0,0,0,24.7,0,0,0,0,0,0,0,0,136,0,0,0,0,41.1,0,0,0,0,0,0,0,0,43.4,0,0,0.0,0,0,0,0,0,0,0,0,0,秋田地熱資源図説明書，地質調査所，1996
赤湯温泉,山形県,南陽市,赤湯,http://www.akayu-onsen.com,4.26,2968,13,10,9,8,0,9,1,False,True,False,True,False,False,False,False,False,False,38.046782,140.165305,山形県,上山市須田坂,140.0,19.0,15.0,38.0,6.0,12.0,0,井戸,温泉・鉱泉,172.0,0,0,35.1,114.0,0,8.4,0,0,0,0,0,0,0,0,0,0,0,82.64,8.934,0,0,0,0.623,21.07,0,0,0,0,0,0,0,0,0,0,0,0,28.85,0,0,0,0,0,0,0,0,149.7,0,0,0,0,52.04,0,0,0,0,0,0,0,0,36.0,0,0,0.0,0,0,0,0,0,0,0,mg/kg,0,秋田地熱資源図説明書，地質調査所，1996
宮ノ下温泉,神奈川県,箱根町,宮ノ下,http://www.miyanoshita.com,4.29,2576,11,10,6,7,3,10,4,True,True,False,False,False,False,False,False,False,False,35.243067,139.057175,神奈川県,信玄館,139.0,3.0,10.0,35.0,26.0,30.0,0,井戸,温泉・鉱泉,0,0,0,32.9,0,0,9.93,7.75,0,0,0,528.6,0,0,0,0,0,0.088,153.0,1.72,0,0,0,0.48200000000000004,19.9,0,0,0.068,0,0.15,0,0,0,0,0,0,0,44.57,0,0,1.45,0,0,0,0,0,260,0,0,0,0,32.6,1.64,0,0,0,0,0,0,0,0,0,1.319,0.446,0,0,0,0,0,0,0,0,1963-09-27 00:00:00,"丹沢山地の温泉鉱泉.神奈川県温研報告,1964"
大町温泉郷,長野県,大町市,平,http://www.omachionsen.jp,4.21,4218,10,10,10,9,2,10,0,True,False,False,False,False,False,False,False,False,False,36.529053,137.80695,長野県,姫川温泉群,137.0,58.0,50.0,36.0,51.0,40.0,0,湧泉,温泉・鉱泉,0,0,0,47,0,0,7.3,0,0,0,0,1856.0,0,0,0,0,0,0,0,0,0,0,0,13.2,44.2,0,0,0,0,0,0,0,0,0,0,0,0,59.5,0,0,0,0,0,0,0,0,1.6,0,0,0,0,2074.0,0,0,0,0,0,0,0,0,0,96.8,0,0.0,0,8.8,0,0,0,0,0,0,0,"本邦諸温泉の地質学的研究,地調報告,1962"
白骨温泉,長野県,松本市,安曇,http://www.shirahone.org,4.48,3887,12,10,9,9,0,9,1,False,True,True,True,False,False,False,False,False,False,36.1463179724121,137.624984741211,長野県,東御殿の湯,137.0,59.0,40.0,36.0,15.0,40.0,0,不明,温泉・鉱泉,0,0,0,46,0,0,8.0,0,0,0,0,0,0,0,0,0,0,0,0,0,0,0,0,0,41.5,0,0,0,0,0,0,0,0,0,0,0,0,38.0,0,0,0,0,0,0,0,0,190.9,0,0,0,0,12.0,3.0,0,0,0,0,0,0,0,0,0,0,0.0,0,0,0,0,0,0,0,0,1955.3.,"長野県浅間温泉調査報告,地調月報,1957"
下諏訪温泉,長野県,下諏訪町,－,http://shimosuwa.com,4.26,1105,10,10,3,4,0,8,0,True,True,False,False,False,True,False,False,False,False,36.0768385,138.0859736,長野県,Ｇｕｎｙｏ−ｋａｎ,138.0,5.0,20.0,36.0,10.0,40.0,0,不明,温泉・鉱泉,0,0,0,13,0,0,5.6,0,0,0,0,0,0,0,0,0,0,0,0,0,0,0,0,0,0,0,0,0,0,0,0,0,0,0,0,0,0,0,0,0,0,0,0,0,0,0,0,0,0,0,0,0,0,0,0,0,0,0,0,0,0,0,0,0.0,0,0,0,0,0,0,0,0,1976-10-17 00:00:00,"長野県の温泉についての同位体化学的調査報告,岡山大学温泉研究所報告,1980"
輪島温泉,石川県,輪島市,マリンタウン,http://www.wajimaonsen.com/index.shtml,4.08,3325,11,10,4,3,2,11,0,False,True,True,False,False,False,False,False,False,False,37.3909267,136.9018129,石川県,珠洲市真浦町,137.0,6.0,25.0,37.0,28.0,9.0,0,井戸,温泉・鉱泉,0,0,0,19.3,0,0,8.4,0,0,0,0,0,0,0,0,0,0,0,1451.0,9.1,0,0,0,1.354,63.76,0,0,0,0,0,0,0,0,0,0,0,0,1870.0,0,0,0,0,0,0,0,0,316.0,0,0,0,0,316.8,0,0,0,0,0,0,0,0,0,0,0,0.0,0,0,0,0,0,0,0,0,1963.6.18.,"石川県珠洲市における温泉源の相関性について,温泉工学会誌,1982"
湯ヶ島温泉,静岡県,伊豆市,湯ケ島,http://www.amagigoe.jp/index.html,3.88,1745,11,10,7,6,1,10,1,True,True,False,False,True,True,False,False,False,False,34.890232,138.924059,静岡県,熱海市,139.0,4.0,13.0,35.0,5.0,52.0,0,井戸,温泉・鉱泉,300.0,0,0,63.0,0,0,8.0,0,0,0,0,9300.0,0,0,0,0,0,0,555.0,15.1,0,0,0,1.7,980.6,0,0,0.6,0,0,0,0.7,0,0,0,0,0,2155.8,0,0,0,0,0,0,0,0,629.2,0,0,0,0,21.4,0,0,0,0,0,0,0,0,0,0,8.2,0.0,0,0,0,0,0,0,0,0,1964,"熱海温泉の熱水系について,地調月報,1969"
舘山寺温泉,静岡県,浜松市西区,舘山寺町,http://www.kanzanji.gr.jp,4.18,6494,11,10,10,8,3,11,1,False,True,False,False,False,False,False,False,False,False,34.771903,137.625466,静岡県,No.1,138.0,20.0,20.0,35.0,18.0,20.0,0,不明,温泉・鉱泉,0,0,0,30.0,0,0,9.4,0,0,0,0,260.0,0,0,0,0,0,0,64.0,2,0,0,0,0,12.0,0,0,0,0,0,0,0,0,0,0,0,0,6.12,0,0,0,0,0,0,0,0,0,0,0,0,0,0,0,0,0,0,0,0,0,0,0,0,0,0.0,0,0,0,0,0,0,0,0,0,"中部地方における温泉水中のホウ素の地球化学的研究（第２報）,地球化学,1984"
福地温泉,岐阜県,高山市,奥飛騨温泉郷福地,http://www.fukujionsen.com,4.34,921,10,10,7,10,0,8,1,True,False,True,False,False,False,False,False,False,False,36.224201,137.5301278,岐阜県,0,137.0,34.0,33.0,36.0,16.0,51.0,0,湧泉,温泉・鉱泉,0,0,0,48.0,0,0,7.7,0,0,0,0,0,0,0,0,0,0,0,68.05,8.21,0,0,0,0.73,15.23,0,0,0,0,0,0,0,0,0,0,0,0,72.32,0,0,0,0,0,0,0,0,12.97,0,0,0,0,95.8,0,0,0,0,0,0,0,0,0,0,0,0.0,0,0,0,0,0,0,0,0,1977.7.19.,"焼岳地域の温泉水の同位体組成，化学組成および地下温度について,日本地熱学会誌,1980"
雄琴温泉,滋賀県,大津市,雄琴六丁目,,4.34,7269,10,10,8,8,3,10,4,True,True,True,False,False,False,False,False,False,False,35.087545,135.8973464,滋賀,高島郡マキノ町大字白谷字山田,136.0,2.0,39.0,35.0,29.0,47.0,0,井戸,温泉・鉱泉,300.0,0,23.8,17.8,150.0,0,8.4,0,0,0.9985,0,286.4,0,0,0,0,0,0,95.14,1.102,0,0,0.0,2.2030000000000003,9.014,0,0,0,0.0,0.061,0.0,0,0,0,0,0,6.85,7.541,0,0,0.043,0,0.126,0,0,0,7.511,0,0,0,0,221.5,3.265,0,0,0.033,0,0,0,0,0,0,0.226,0.0,0.0,2.13,0,0,0,0,0,0,1976,"滋賀県下の温泉について（第７報）,滋賀衛環セ所報,1976"
柴山温泉,兵庫県,香美町,香住区浦上,,4.04,456,11,10,6,2,1,10,3,True,False,False,False,True,False,False,False,False,False,35.647563,134.66288,兵庫,0,134.0,37.0,42.0,35.0,36.0,25.0,0,不明,温泉・鉱泉,0,0,0,0,0,0,7.4,0,0,0,0,0,2860.0,0,0,0,0,0.24,346.0,8.0,0,0,0,1.0,197.0,0,0,0.04,0.07,0.05,0,0,0,0,0,0,4.11,612.0,1.98,0.05,0,0,0,0,0,0,343.0,0,0,0,0,0,0,0,0,0,0,0,0,0,57.0,0,0,0.0,<0.5,0,10.8,0.08199999999999999,0,0,0.87,0,1995.11.17.,"兵庫県北西部浜坂周辺温泉の成因,温泉科学,1996"
うずしお温泉,兵庫県,南あわじ市,阿那賀,http://awajiinfo.com/uzusio-onsen/,4.38,1714,10,10,5,2,1,7,0,False,False,True,False,False,False,False,False,False,False,34.2914854,134.6622201,兵庫,0,134.0,59.0,37.0,34.0,33.0,9.0,0,井戸,温泉・鉱泉,1200.0,0,0,26.5,0,0,7.35,0,7.23,0,0,234.0,0,0,0,0,0,0.11,71.0,8.44,0,0,0,4.82,12.9,0.0,0,0,0,2,0,0,0,0,0,0,0.85,5.42,0,0,0,0,0,0,0,0,1.24,0,0,0,0,252.0,0,0,0,0,0,0,0,0,0,9.01,2.4,0.0,0,0,18.9,0,0,0,0,mg/kg,1989.6.13.,"花崗岩および和泉層群を湧出母岩とする淡路の温泉について,兵庫県立衛生研究所年報　第31号,1996"
松江宍道湖温泉,島根県,松江市,西茶町,http://www.shinjiko-onsen.jp/,4.32,11885,10,10,6,4,0,10,1,False,True,False,False,True,True,False,False,False,False,35.465727,133.044095,島根,長楽園竜宮,133.0,0.0,50.0,35.0,24.0,50.0,0,不明,温泉・鉱泉,0,0,0,72.0,0,0,8.1,0,0,0,0,0,0,0,0,0,0,0.275,385.0,12.8,0,0,0,0.7,141.0,0,0,0,0.01,0,0,0.01,0,0,0,0,0,227.0,0.54,0.006,0,0,0,0,0,0,869.0,0,0,0,0,27.46,0,0,0,0,0,0,0,0,40.0,0,5.3,0.0,0,0,0,0,0,0,0,0,1966-07-16 00:00:00,"島根県温泉の化学,温泉科学,1977"
琴平温泉,香川県,琴平町,－,,4.04,7932,10,10,9,5,3,10,2,True,True,True,False,True,True,False,False,False,False,34.1888327734375,133.819869995117,,,,,,,,,,,,,,,,,,,,,,,,,,,,,,,,,,,,,,,,,,,,,,,,,,,,,,,,,,,,,,,,,,,,,,,,,,,,,,,,,,,,,
小田温泉,熊本県,南小国町,大字満願寺,http://www.otaonsen.jp,4.50,1585,15,10,7,10,0,9,1,True,True,True,True,True,True,False,False,False,False,33.0682342,131.1290963,熊本県,豊肥地域雀の地獄,131.0,10.0,0.0,33.0,4.0,30.0,0,井戸,温泉・鉱泉,0,0,0,8.5,0,0,1.6,0,0,0,0,0,0,0,0,0,0,0,6.98,5.62,0,0,0,6.18,15.6,0,0,0,0,0,0,0,0,0,0,0,0,0,0,0,0,0,0,0,0,0,1440.0,0,0,0,0,0.0,0.0,0,0,0,0,0,0,0,119.0,0,0,0.0,0,0,0,0,0,0,0,mg/L,0,"地熱流体の化学に基づく豊肥地域熱水系の概念的モデル,地質調査所報告,1985"
日奈久温泉,熊本県,八代市,日奈久中西町,http://www.hinagu.jp,4.14,1106,17,10,5,1,1,10,0,True,True,False,True,False,True,False,False,False,False,32.433097,130.573583,熊本県,0,130.0,58.0,54.0,32.0,37.0,43.0,0,湧泉,温泉・鉱泉,0,0,0,15.2,11,0,6.15,0,0,1.0011,0,2983.0,0,0,0,0,0.0,1.14,909.0,29.97,0,0,4.56,72.32,116.4,0,0,0,0.34,6.59,0,6.59,0,0.07,0,0,0.53,914.3,1.65,0.12,0,0,0,0.04,0,0,11.58,0,0.2,0.07,0,1697.0,0.16,0.01,0,0.05,0,0,0,0,0,26.33,51.26,0.0,0.29,2566.0,0,0,0,0,0,mg/kg,1975-01-31 00:00:00,"熊本県鉱泉誌 第Ⅱ巻（補遺）,熊本県衛生公害研究所報,1980"
霧島神宮温泉,鹿児島県,霧島市,霧島田口,http://kirishimakankou.com,3.89,1862,14,10,6,6,3,10,2,True,False,True,True,False,True,False,False,False,False,31.8546576635742,130.868133544922,鹿児島県,0,130.0,44.0,51.0,32.0,0.0,7.0,0,不明,温泉・鉱泉,0,0,0,40.0,0,0,8.9,0,0,0,0,0,0,0,0,0,0,0,28.7,0.35,0,0,0,0.01,6.52,0,0,0,0.02,0,0,0.17,0,0,0,22.7,0.44,3.0,0.02,0,0,0,0,0,0,0,14.3,0,0,0,0,48.1,0,0,0,0,0,0,0,0,0,0,0,0.0,0,0,0,75.1,0,0,0.13,0,1994-12-01 00:00:00,"鹿児島県の温泉 北薩・伊佐・吉松地域の温泉,鹿児島県 保健環境部 生活衛生課,鹿児島県公害防止協会,1995"
えちごせきかわ温泉郷,新潟県,関川村,大字湯沢,http://www.sekikawa-onsen.com/,4.23,792,16,10,9,4,0,10,1,True,True,False,False,True,True,False,False,False,False,38.0844512121582,139.579742431641,新潟県,0,139.0,36.0,17.0,38.0,4.0,34.0,0,不明,温泉・鉱泉,0,0,0,0,0,0,7.2,0,0,0,0,2450.0,3950.0,0,0,0,0,0,784.0,53.8,0,0,0,2.1,89.6,0,0,0,0,0,0,0,0,0,0,0,0,949.0,0,0,0,0,0,0,0,0,438,0,0,0,0,133.0,0.2,0,0,0,0,0,0,0,0,92.4,0,0.0,0,0,0,0,0,0,0,0,0,"温泉実態調査からみた県内温泉の水質,新潟県衛生公害研究所年報第10報,1994"
信州高山温泉郷,長野県,高山村,大字奥山田,http://shinshu-takayama-onsenkyo.com/,4.48,964,14,10,6,7,0,9,1,True,True,False,True,False,True,False,False,False,False,36.6703636,138.4246533,長野県,下水内郡栄村,138.0,38.0,5.0,36.0,51.0,4.0,0,不明,温泉・鉱泉,0,0,0,45,18.0,0,6.7,0,0,0,0,0,0,0,0,0,0,0,5664.0,329.4,0,0,0,284.7,1829.0,0,0,0,0,0,0,0,0,0,0,0,0,11180.0,0,0,0,0,0,0,0,0,1202.0,0,0,0,0,1577.0,0,0,0,0,0,0,0,0,101.5,0,0,0.0,0,0,0,0,0,0,0,0,0,新潟地熱資源図説明書，地質調査所，1993
新川渓谷温泉郷,鹿児島県,霧島市,牧園町下中津川,,4.43,1403,16,10,7,6,1,10,1,False,True,True,False,False,False,False,False,False,False,31.8109121,130.7578771,鹿児島県,0,130.0,44.0,51.0,32.0,0.0,7.0,0,不明,温泉・鉱泉,0,0,0,40.0,0,0,8.9,0,0,0,0,0,0,0,0,0,0,0,28.7,0.35,0,0,0,0.01,6.52,0,0,0,0.02,0,0,0.17,0,0,0,22.7,0.44,3.0,0.02,0,0,0,0,0,0,0,14.3,0,0,0,0,48.1,0,0,0,0,0,0,0,0,0,0,0,0.0,0,0,0,75.1,0,0,0.13,0,1994-12-01 00:00:00,"鹿児島県の温泉 北薩・伊佐・吉松地域の温泉,鹿児島県 保健環境部 生活衛生課,鹿児島県公害防止協会,1995"
稚内温泉,北海道,稚内市,中央二丁目,,4.12,4884,9,9,6,1,3,9,0,False,True,True,False,False,False,False,False,False,False,45.39954,141.683396,北海道,稚内市近布,141.0,38.0,37.0,45.0,25.0,9.0,0,井戸,温泉・鉱泉,1004,0,0,35.0,50.9,0,7.5,8.2,0,0,0,21172.0,0,0,0,0,0,0,8408.0,41.0,0,0,0,33.4,61.1,0,0,1.1,0.04,3.26,0,3.26,0,0,0,0,0.49,9354.0,0,0,0,0,0,0,0,0,0.0,0,0,0,0,6631.0,0,0,0,0,0,0,0,0,20.2,0,447.2,0.0,0.03,195.8,0,0,0,0,0,0,1973-09-30 00:00:00,"北海道の地熱・温泉（C）北海道中央部、北海道立地下資源調査所,1979"
十和田湖温泉郷,青森県,十和田市,大字奥瀬,,4.36,2362,11,9,8,5,1,9,2,True,True,True,True,True,False,False,False,False,False,40.579082,140.9957769,青森県,上北郡野辺地町字馬門道,141.0,4.0,17.0,40.0,52.0,16.0,0,不明,温泉・鉱泉,0,0,20.0,32.5,0,0,8.85,0,0,0,0.9986,0.2393,0,0,0,0,0,0,53.8,2.3,0,0,0,0.1,0.0,0,0,0.2,0.0,0.1,0,0,0,0,0,0,0,35.1,0,0,0.1,0,0,0,0,0,10.8,0,0,0.7,0,73.3,0,0,0,0,0,0,0,0,0,116.8,2.6,0.0,0,0,0,0,0,0,0,0,1979-10-12 00:00:00,青森県の温泉，青森県衛生研究所報No.17，1980
東鳴子温泉,宮城県,大崎市,鳴子温泉,http://higasinaruko.michikusa.jp,3.58,1664,12,9,9,7,0,9,0,True,True,True,True,True,True,False,False,False,False,38.7446373,140.735896,宮城県,栗原郡栗駒町沼倉耕栄東,140.0,50.0,4.0,38.0,56.0,7.0,0,井戸,温泉・鉱泉,1300.0,0,0,74.2,126.9,0,8.2,0,0,0,0,0,0,0,0,0,0,0,329.6,5.1,0,0,0,0.5,31.8,0,0,0,0,0,0,0,0,0,0,0,0,167.4,0,0,0,0,0,0,0,0,467.9,0,0,0,0,115.7,0,0,0,0,0,0,0,0,70.1,0,0,0.0,0,0,0,0,0,0,0,mg/kg,0,秋田地熱資源図説明書，地質調査所，1996
土湯温泉,福島県,福島市,土湯温泉町,http://www.tcy.jp,4.35,1749,10,9,7,7,2,9,2,True,False,True,False,False,False,False,False,False,False,37.682888,140.324291,福島県,福島市飯坂町,140.0,26.0,18.0,37.0,50.0,10.0,0,井戸,温泉・鉱泉,0,0,0,64.5,209,0,8.3,0,0,0,0,0,0,0,0,0,0,0,253.9,5.3,0,0,0,1.7,39.6,0,0,0,0,0,0,0,0,0,0,0,0,137.3,0,0,0,0,0,0,0,0,415.3,0,0,0,0,52.8,0,0,0,0,0,0,0,0,0,0,0,0.0,0,0,0,0,0,0,0,0,0,新潟地熱資源図説明書，地質調査所，1993
中ノ沢温泉,福島県,猪苗代町,大字蚕養,,3.94,1394,11,9,7,7,1,8,0,False,True,False,True,True,False,True,False,False,False,37.6142129,140.210506,福島県,福島市飯坂町,140.0,26.0,18.0,37.0,50.0,10.0,0,井戸,温泉・鉱泉,0,0,0,64.5,209,0,8.3,0,0,0,0,0,0,0,0,0,0,0,253.9,5.3,0,0,0,1.7,39.6,0,0,0,0,0,0,0,0,0,0,0,0,137.3,0,0,0,0,0,0,0,0,415.3,0,0,0,0,52.8,0,0,0,0,0,0,0,0,0,0,0,0.0,0,0,0,0,0,0,0,0,0,新潟地熱資源図説明書，地質調査所，1993
岳温泉,福島県,二本松市,岳温泉一丁目,http://www.dakeonsen.or.jp,4.05,2740,12,9,7,6,2,9,0,True,False,False,False,False,False,True,False,False,False,37.582276,140.336066,福島県,福島市飯坂町,140.0,27.0,4.0,37.0,49.0,58.0,0,井戸,温泉・鉱泉,0,0,0,72,3669,0,8.1,0,0,0,0,0,0,0,0,0,0,0,233.0,6.6,0,0,0,1.5,38.6,0,0,0,0,0,0,0,0,0,0,0,0,135.9,0,0,0,0,0,0,0,0,401.9,0,0,0,0,56.1,0,0,0,0,0,0,0,0,0,0,0,0.0,0,0,0,0,0,0,0,0,0,新潟地熱資源図説明書，地質調査所，1993
芦ノ牧温泉,福島県,会津若松市,大戸町大字芦牧,http://www.aizu-ashinomaki.jp,4.28,5413,10,9,9,9,3,9,1,True,True,False,False,True,True,False,False,False,False,37.3643522,139.917856,福島県,猪苗代町磐根,140.0,3.0,20.0,37.0,34.0,20.0,0,湧泉,温泉･鉱泉,0,0,0,35,0,無色透明,7.4,0,0,1.0011,0,1378.0,0,0,0,0,0,0,158.8,1.2,0,0,0,2.7,84.0,0,0,8.4,0,28.9,0,0,0,0,0,0,0,341.5,0,0,0,0,0,0,0,0,55.9,0,0,0,0,153.9,0,0,0,0,0,0,0,0,0,168.7,0,0.0,0,10.8,0,0,0,0,0,mg/kg,1952/3,福島県の温泉の成分に関する研究（その６），福島県衛生研研究報告，1955
中禅寺温泉,栃木県,日光市,中宮祠,http://www.chuzenji.jp,4.14,3472,10,9,6,6,1,9,2,True,False,False,True,False,True,False,False,False,False,36.73843,139.49777,栃木県,那須郡塩原町,139.0,46.0,48.0,36.0,59.0,16.0,0,不明,温泉・鉱泉,0,0,0,65.8,4513.0,0,7.3,0,0,0,0,0,0,0,0,0,0,0,453.0,17.7,0,0,0,4.7,31.0,0,0,0,0,0,0,0,0,0,0,0,0,528.0,0,0,0,0,0,0,0,0,133.0,0,0,0,0,298.0,0,0,0,0,0,0,0,0,104.0,0,0,0.0,0,0,0,0,0,0,0,mg/kg,0,"新潟地熱資源図説明書,地質調査所,1993"
岩室温泉,新潟県,新潟市西蒲区,岩室温泉,http://www.iwamurokankou.com,4.47,2097,11,9,8,8,0,10,3,True,True,True,True,False,True,False,False,False,False,37.7348456518555,138.837631225586,新潟県,新潟市,139.0,2.0,46.0,37.0,55.0,36.0,0,不明,温泉・鉱泉,1510,0,0,49.0,1400.0,0,0,7.9,0,0,0,0,0,0,0,0,0,0,10931.1,1322.6,0,0,0,397.5,424.2,0,0,0,0,0,0,0,0,0,0,0,0,19454.6,0,0,0,0,0,0,0,0,37,0,0,0,0,1052.9,0,0,0,0,0,0,0,0,183.1,0,0,0.0,0,0,0,0,0,0,0,0,0,"新潟地熱資源図説明書,地質調査所,1993"
弥彦温泉,新潟県,弥彦村,大字弥彦,http://www.e-yahiko.com,4.24,1940,13,9,7,3,1,9,0,True,True,False,True,False,False,False,False,False,False,37.695415,138.822357,新潟県,新潟市,139.0,2.0,46.0,37.0,55.0,36.0,0,不明,温泉・鉱泉,1510,0,0,49.0,1400.0,0,0,7.9,0,0,0,0,0,0,0,0,0,0,10931.1,1322.6,0,0,0,397.5,424.2,0,0,0,0,0,0,0,0,0,0,0,0,19454.6,0,0,0,0,0,0,0,0,37,0,0,0,0,1052.9,0,0,0,0,0,0,0,0,183.1,0,0,0.0,0,0,0,0,0,0,0,0,0,"新潟地熱資源図説明書,地質調査所,1993"
六日町温泉,新潟県,南魚沼市,坂戸,http://www.muikamachi-onsen.jp/,4.13,990,11,9,7,5,0,9,0,True,True,False,False,False,False,False,False,False,False,37.060243,138.882317,新潟県,北魚沼郡湯之谷村,139.0,0.0,56.0,37.0,13.0,30.0,0,不明,温泉・鉱泉,409,0,0,24.5,740.0,0,7.2,0,0,0,0,0,0,0,0,0,0,0,352.9,21.2,0,0,0,57.9,275,0,0,0,0,0,0,0,0,0,0,0,0,72.7,0,0,0,0,0,0,0,0,964.9,0,0,0,0,764.2,0,0,0,0,0,0,0,0,59.2,0,0,0.0,0,0,0,0,0,0,0,0,0,"新潟地熱資源図説明書,地質調査所,1993"
宇奈月温泉,富山県,黒部市,宇奈月温泉,http://www.unazuki-onsen.com,4.38,8427,12,9,9,8,4,9,1,True,False,False,False,False,False,False,False,False,False,36.817275,137.582228,富山県,立山地域,137.0,38.0,15.0,36.0,52.0,33.0,0,湧泉,温泉・鉱泉,0,0,0,47.0,0,0,8.2,0,0,0,0,920.0,0,0,-200.0,0,0,0,417.0,17.0,0,0,0,0,54.0,0,0,0,0,0,0,0,0,0,0,0,0,357.4,0,0,0,0,0,0,0,0,0,0,0,0,0,0,0,0,0,0,0,0,0,0,0,0,0,0.0,0,0,0,0,0,0,0,0,1977.10.,"中部地方における温泉水中のホウ素の地球化学的研究（第１報）,地球化学,1983"
湯涌温泉,石川県,金沢市,湯涌荒屋町,http://yuwaku.gr.jp,4.50,1558,9,9,8,8,0,9,3,False,True,False,True,False,True,False,False,False,False,36.489841,136.756615,石川県,0,136.0,53.0,26.0,36.0,56.0,50.0,0,井戸,温泉・鉱泉,0,0,0,14.0,0,0,0,0,0,0,0,0,0,0,0,0,0,0,0,0,0,0,0,0,0,0,0,0,0,0,0,0,0,0,0,0,0,0,0,0,0,0,0,0,0,0,0,0,0,0,0,0,0,0,0,0,0,0,0,0,0,0,0,4.24,0,0,0,0,0,0,0,0,0,"能登半島のヘリウム資源調査研究,地調月報,1974"
片山津温泉,石川県,加賀市,潮津町,http://www.katayamazu-spa.or.jp,4.07,5894,9,9,9,9,1,9,0,False,True,False,False,False,False,False,False,False,False,36.346957,136.3648986,石川県,0,136.0,46.0,21.0,36.0,42.0,10.0,0,井戸,温泉・鉱泉,298.0,0,0,25.6,10.0,0,7.4,0,0,0,0,0,0,0,0,0,0,0,17.5,15.0,0,0,3.37,11.9,22.0,0,0,0,0,0,0,0,0,0,0,0,0,12.3,0,0,0,0,0,0,0,0,4.6,0,0,0,0,185.0,0.0,0,0,0,0,0,0,0,0,0,0,0.17,0,0,0,0,0,0,0,0,0,"能登半島のヘリウム資源調査研究,地調月報,1974"
下賀茂温泉,静岡県,南伊豆町,下賀茂,,4.16,950,10,9,4,6,0,8,0,True,True,False,False,False,False,False,False,False,False,34.6486052,138.8714158,静岡県,加茂郡東伊豆町,139.0,4.0,28.0,34.0,50.0,37.0,0,井戸,温泉・鉱泉,0,0,0,45.0,0,0,8.4,0,0,0,0,1244.0,0,0,0,0,0,0,355.0,6,0,0,0,2.4,25.9,0,0,0,0,0,0,0,0,0,0,0,0,429.4,0,0,0,0,0,0,0,0,208.3,0,0,0,0,160.4,0,0,0,0,0,0,0,0,0,0,0,0.0,0,0,0,0,0,0,0,0,1973,"熱川温泉および周辺地域の地温と化学成分,地熱,1978"
浜坂温泉,兵庫県,新温泉町,芦屋,http://www.hamasaka.com,4.16,597,10,9,3,1,0,9,1,False,True,False,False,False,False,False,False,False,False,35.6252682,134.4432195,兵庫,0,134.0,37.0,42.0,35.0,36.0,25.0,0,不明,温泉・鉱泉,0,0,0,0,0,0,7.4,0,0,0,0,0,2860.0,0,0,0,0,0.24,346.0,8.0,0,0,0,1.0,197.0,0,0,0.04,0.07,0.05,0,0,0,0,0,0,4.11,612.0,1.98,0.05,0,0,0,0,0,0,343.0,0,0,0,0,0,0,0,0,0,0,0,0,0,57.0,0,0,0.0,<0.5,0,10.8,0.08199999999999999,0,0,0.87,0,1995.11.17.,"兵庫県北西部浜坂周辺温泉の成因,温泉科学,1996"
萩温泉,山口県,萩市,大字椿東,,4.30,9656,9,9,9,8,3,9,1,False,True,False,False,False,False,False,False,False,False,34.4162336,131.3870797,山口,0,131.0,10.0,40.0,34.0,19.0,30.0,0,不明,温泉・鉱泉,0,0,0,41.0,0,0,9.3,0,0,0,0,0,0,0,0,0,0,0,44.4,1.5,0,0,0,0.2,1.9,0,0,0,0,0,0,0,0,0,0,0,0,0,0,0,0,0,0,0,0,0,17.4,0,0,0,0,0,0,0,0,0,0,0,0,0,0,0,0,0.0,0,0,0,0,0,0,0,0,1963,"日本の熱水系の水素，酸素の同位元素比と主成分化学について,地球科学ジャーナル1973"
たら竹崎温泉,佐賀県,太良町,大字大浦乙,,4.24,938,9,9,6,4,1,9,1,True,True,True,False,False,False,False,False,False,False,32.962945,130.2211523,佐賀県,0,130.0,6.0,43.0,33.0,4.0,18.0,0,不明,温泉・鉱泉,0,0,1.0,34.4,0,0,8.0,0,0,0.9988,0,515.0,0,0,0,0,0,0.0,174.5,4.1,0,0,0,4.0,6.7,0,0,0.0,0.0,0.2,0,0,0,0,0,0,0.2,10.4,0,0,0.0,0,0,0,0,0,1.2,0,0,0,0,502.9,0.0,0,0,0,0,0,0,0,0,65.7,3.6,0.0,0,12.3,0,0,0,0,0,mg/kg,1989-02-22 00:00:00,"佐賀県の温泉について（平成4年度；第19報）,佐賀県衛生研究所報,1993"
平山温泉,熊本県,山鹿市,平山,http://www.hirayama-onsen.jp,4.21,1511,15,9,6,9,3,9,1,True,False,False,True,True,True,False,False,False,False,33.0490259,130.6524444,熊本県,0,130.0,47.0,40.0,33.0,1.0,2.0,0,井戸,温泉・鉱泉,0,0,0,42.9,100.8,0,9.15,0,0,1.0001,0,324.5,0,0,0,0,0,0,79.96,3.7,0,0,0.77,0.17,9.28,0,0,0.06,0.09,0.26,0,0.26,0.02,0,0,0,1.9,14.89,0,0,11.95,0,0,0,0,0,36.99,0,0,0.05,0,109.55,9.67,0.01,0,0.02,0,0,0.07,0,0,40.23,5.08,0.0,0,0,0,0,0,0,0,mg/kg,1962-04-01 00:00:00,"熊本県鉱泉誌 第Ⅱ巻,熊本県衛生公害研究所報,1978"
菊池温泉,熊本県,菊池市,隈府,http://www.kikuchikanko.ne.jp,3.63,1126,14,9,7,4,0,9,0,True,False,False,True,True,True,False,False,False,False,32.9836783544922,130.815551757813,熊本県,0,131.0,2.0,10.0,33.0,10.0,43.0,0,不明,温泉・鉱泉,0,0,0,42.2,144,0,7.9,0,0,0.9993,0,322.7,0,0,0,0,0,0.02,70.55,7.5,0,0,0,0.75,3.48,0,0,0.15,0,0.12,0,0.12,0,0.04,0,0,0.85,77.94,0.16,0,0.01,0,0,0.45,0.02,0,14.48,0,0.03,0.49,0,64.72,0.29,1.34,0,0.15,0,0,0,0,0,90.28,3.38,0.0,0.06,2.02,0,0,0,0,0,mg/kg,1975-01-31 00:00:00,"熊本県鉱泉誌 第Ⅱ巻（補遺）,熊本県衛生公害研究所報,1980"
植木温泉,熊本県,熊本市北区,植木町米塚,http://www.ueki-onsenkumiai.com,4.76,650,10,9,5,8,0,6,0,True,True,True,True,False,False,False,False,False,False,32.95242,130.726083,熊本県,0,130.0,47.0,40.0,33.0,1.0,2.0,0,井戸,温泉・鉱泉,0,0,0,42.9,100.8,0,9.15,0,0,1.0001,0,324.5,0,0,0,0,0,0,79.96,3.7,0,0,0.77,0.17,9.28,0,0,0.06,0.09,0.26,0,0.26,0.02,0,0,0,1.9,14.89,0,0,11.95,0,0,0,0,0,36.99,0,0,0.05,0,109.55,9.67,0.01,0,0.02,0,0,0.07,0,0,40.23,5.08,0.0,0,0,0,0,0,0,0,mg/kg,1962-04-01 00:00:00,"熊本県鉱泉誌 第Ⅱ巻,熊本県衛生公害研究所報,1978"
亀川温泉,大分県,別府市,大字野田,,4.39,2109,9,9,3,5,1,9,1,True,True,False,False,False,True,False,False,False,False,33.324437,131.495383,大分県,0,131.0,41.0,6.0,33.0,43.0,53.0,0,不明,温泉・鉱泉,0,0,0,26.7,0,0,6.15,0,0,0,0,0,0,0,0,0,0,0,114.0,12.0,0,0,0,248.0,299.0,0,0,0,0,0,0,0,0,0,0,0,0,175.0,0,0,0,0,0,0,0,0,187.0,0,0,0,0,1860.0,0,0,0,0,0,0,0,0,105.0,0,0,0.0,0,0,0,0,0,0,0,0,1977-07-28 00:00:00,"国東半島の温鉱泉の化学組成,大分県温泉調査研究会報告第33号,1982"
わいた温泉郷,熊本県,小国町,大字西里,http://waita.info,4.49,543,10,9,5,8,1,9,1,True,True,False,True,False,True,False,False,False,False,33.1440914,131.1234776,熊本県,豊肥地域,131.0,10.0,20.0,33.0,12.0,10.0,0,井戸,温泉・鉱泉,0,0,0,38.9,0,0,7.7,0,0,0,0,0,0,0,0,0,0,0,67.2,4.91,0,0,0,1.68,11.0,0,0,0,0,0,0,0,0,0,0,0,0,92.9,0,0,0,0,0,0,0,0,10.5,0,0,0,0,89.0,0.0,0,0,0,0,0,0,0,81.5,0,0,0.0,0,0,0,0,0,0,0,mg/L,0,"地熱流体の化学に基づく豊肥地域熱水系の概念的モデル,地質調査所報告,1985"
ニセコ温泉郷,北海道,ニセコ町,字ニセコ,https://www.niseko-ta.jp/resorts/hotspring/,4.04,2423,9,9,9,9,2,9,4,False,True,True,True,True,True,False,False,False,False,42.8412391,140.6200385,北海道,赤井川村中央,140.0,49.0,0.0,43.0,4.0,50.0,0,井戸,温泉・鉱泉,1352,0,0,43.2,f 77.5,0,8.1,8.2,0,0,0,921.0,0,0,0,0,0,0,278.0,7.6,0,0,0,1.2,16.5,0,0,0,tr,0.64,0.06,0.7,0,0.254,0,0,=,152.4,0,0,0,0,0,0,0,0,216.7,0,0,0,0,246.4,5.4,0,0,0,0,0,0,0,82.0,0,=,0.0,0.17,CO3 5.4,0,0.002,0,0,0,0,1978-11-30 00:00:00,"北海道の地熱・温泉,地下資源調査所調査研究報告第15号,1985"
松島温泉,宮城県,松島町,磯崎,,4.27,7418,9,9,9,7,4,9,2,True,True,True,False,True,False,False,False,False,False,38.372059,141.069774,宮城県,栗原郡築館町赤阪,141.0,1.0,27.0,38.0,43.0,6.0,0,不明,温泉・鉱泉,0,0,0,<25,0,0,0,0,0,0,0,0,0,0,0,0,0,0,0,0,0,0,0,0,0,0,0,0,0,0,0,0,0,0,0,0,0,0,0,0,0,0,0,0,0,0,0,0,0,0,0,0,0,0,0,0,0,0,0,0,0,0,0,0.0,0,0,0,0,0,0,0,0,0,秋田地熱資源図説明書，地質調査所，1996
土湯温泉郷,福島県,福島市,土湯温泉町,,4.35,1749,10,9,7,7,2,9,2,True,False,True,False,False,False,False,False,False,False,37.682888,140.324291,福島県,福島市飯坂町,140.0,26.0,18.0,37.0,50.0,10.0,0,井戸,温泉・鉱泉,0,0,0,64.5,209,0,8.3,0,0,0,0,0,0,0,0,0,0,0,253.9,5.3,0,0,0,1.7,39.6,0,0,0,0,0,0,0,0,0,0,0,0,137.3,0,0,0,0,0,0,0,0,415.3,0,0,0,0,52.8,0,0,0,0,0,0,0,0,0,0,0,0.0,0,0,0,0,0,0,0,0,0,新潟地熱資源図説明書，地質調査所，1993
網走湖畔温泉,北海道,網走市,新町一丁目,,3.92,6375,10,8,9,4,5,10,1,True,True,False,False,False,False,False,False,False,False,44.0207296,144.2530778,北海道,網走市呼人,144.0,13.0,40.0,43.0,59.0,22.0,0,井戸,温泉・鉱泉,150,0,0,17.5,180,0,9.1,9.1,0,0,0,173.0,0,0,0,0,0,0,40.2,1.2,0,0,0,0,0,0,0,0.24,0,0.04,0,0.04,0.003,0.004,0,0,0.46,12.5,0,0,0,0,0,0,0,0,9.8,0,0,0,0,76.9,15.5,0,0,0,0,0,0,0,63.7,0,0,0.0,0,0,0,0.001,0,0,0,0,1974-08-31 00:00:00,"北海道の地熱・温泉（D）北海道東部,北海道立地下資源調査所,1982"
十勝川温泉,北海道,音更町,十勝川温泉南十三丁目,http://www.tokachigawa.net,4.24,4654,9,8,7,7,6,8,1,True,True,True,False,False,False,False,False,False,False,42.9339284,143.2976899,北海道,本別町西美里別,143.0,35.0,30.0,43.0,7.0,50.0,0,井戸,温泉・鉱泉,1017,0,0,34.7,119.4444444444444,0,8.1,8.5,0,0,0,828.0,0,0,0,0,0,0,264.6,13.5,0,0,0,2.4,5.0,0,0,0,0.05,0.1,0,0.1,0,0,0,0,0.85,41.1,0,0,0,0,0,0,0,0,54.5,0,0,0,0,614.9,6.6,0,0,0,0,0,0,0,131.6,0,14.2,0.0,0,0,0,0,0,0,0,0,1982.9.,"北海道の地熱・温泉,地下資源調査所調査研究報告第16号,1985"
黒石温泉郷,青森県,黒石市,大字袋,http://kuroishi.or.jp/stay_onsen,4.24,661,12,8,7,2,0,8,0,True,True,False,False,True,True,False,False,False,False,40.6056428,140.6831737,青森県,東津軽郡平内町福舘字福舘,140.0,58.0,9.0,40.0,55.0,46.0,0,不明,温泉・鉱泉,0,0,2.0,11,0,0,8.6,0,0,0.9986,0,179.7,0,0,0,0,0,0,65.22,0.82,0,0,0.0,4.368,6.391,0,0,0.01,0.005,0,0,0.31,0.001,0,0.0,0,0.0,15.93,0,0,0.068,0,0,0,0,0,51.78,0,0,0.012,0,127.6,0,0,0,0,0,0,0,0.0,0,9.087,0.879,0.0,2.978,0,0,0,0,0,0,0,1977-12-02 00:00:00,青森県の温泉，青森県衛生研究所報No.15，1979
繋温泉,岩手県,盛岡市,繋,http://www.tsunagionsen.com,4.25,4386,8,8,6,6,3,7,0,True,False,False,True,False,False,False,False,False,False,39.6740727,141.016911,岩手県,岩手郡岩手町一方井字御岳,141.0,9.0,49.0,39.0,59.0,27.0,0,井戸,温泉・鉱泉,843,0,0,31.3,60.0,0,8.1,0,0,0,0,0,0,0,0,0,0,0,104.4,8.8,0,0,0,5.4,16.2,0,0,0,0,0,0,0,0,0,0,0,0,52.2,0,0,0,0,0,0,0,0,3.2,0,0,0,0,285.190705,0,0,0,0,0,0,0,0,19.2,0,0,0.0,0,0,0,0,0,0,0,0,0,秋田地熱資源図説明書，地質調査所，1996
台温泉,岩手県,花巻市,台,,4.27,1383,13,8,5,3,0,8,1,True,True,True,True,True,False,False,False,False,False,39.453714,141.05478,岩手県,岩手郡滝沢村鵜飼字土沢,141.0,5.0,18.0,39.0,44.0,49.0,0,不明,温泉・鉱泉,0,0,0,0,0,0,0,0,0,0,0,0,0,0,0,0,0,0,0,0,0,0,0,0,0,0,0,0,0,0,0,0,0,0,0,0,0,0,0,0,0,0,0,0,0,0,0,0,0,0,0,0,0,0,0,0,0,0,0,0,0,0,0,0.0,0,0,0,0,0,0,0,0,0,秋田地熱資源図説明書，地質調査所，1996
鬼首温泉,宮城県,大崎市,鳴子温泉鬼首,http://www.naruko.gr.jp/shukuhaku/spa/03/,―,84,10,8,1,3,0,8,0,True,True,False,False,False,False,False,False,False,False,38.7862757,140.6445302,宮城県,栗原郡栗駒町沼倉耕栄東,140.0,50.0,4.0,38.0,56.0,7.0,0,井戸,温泉・鉱泉,1300.0,0,0,74.2,126.9,0,8.2,0,0,0,0,0,0,0,0,0,0,0,329.6,5.1,0,0,0,0.5,31.8,0,0,0,0,0,0,0,0,0,0,0,0,167.4,0,0,0,0,0,0,0,0,467.9,0,0,0,0,115.7,0,0,0,0,0,0,0,0,70.1,0,0,0.0,0,0,0,0,0,0,0,mg/kg,0,秋田地熱資源図説明書，地質調査所，1996
赤倉温泉,山形県,最上町,大字富澤,http://akakura-spa.com,4.29,312,9,8,7,4,0,8,0,True,False,False,False,True,False,False,False,False,False,38.712108,140.553839,山形県,最上郡最上町堺田字笹塚,140.0,35.0,21.0,38.0,44.0,14.0,0,井戸,温泉・鉱泉,700.0,0,0,53,169.0,0,9.2,0,0,0,0,0,0,0,0,0,0,0,101.0,0.9,0,0,0,0,5.8,0,0,0,0,0,0,0,0,0,0,0,0,24.7,0,0,0,0,0,0,0,0,136,0,0,0,0,41.1,0,0,0,0,0,0,0,0,43.4,0,0,0.0,0,0,0,0,0,0,0,0,0,秋田地熱資源図説明書，地質調査所，1996
檜枝岐温泉,福島県,檜枝岐村,字下ノ原,http://www.oze-info.jp,4.56,546,9,8,4,2,0,8,0,True,False,False,False,False,False,False,False,False,False,37.017264,139.3849588,福島県,福島県南会津郡田島町,139.0,42.0,0.0,37.0,5.0,5.0,0,湧泉・井戸,温泉・鉱泉,0,0,0,32.2,55,0,8,0,0,0,0,0,0,0,0,0,0,0,21.7,0.2,0,0,0,0.1,13.0,0,0,0,0,0,0,0,0,0,0,0,0,5.7,0,0,0,0,0,0,0,0,1.9,0,0,0,0,63.3,0,0,0,0,0,0,0,0,21.0,0,0,0.0,0,0,0,0,0,0,0,0,0,新潟地熱資源図説明書，地質調査所，1993
水上温泉,群馬県,みなかみ町,湯原,http://www.minakami-onsen.com,4.24,8189,11,8,8,4,2,9,0,True,False,True,False,True,True,False,False,False,False,36.769016,138.970897,群馬県,利根郡水上町,139.0,5.0,8.0,36.0,52.0,9.0,0,不明,温泉・鉱泉,0,0,0,80.0,750.0,0,7.6,0,0,0,0,0,0,0,0,0,0,0,138,9.5,0,0,0,4.4,26.2,0,0,0,0,0,0,0,0,0,0,0,0,133,0,0,0,0,0,0,0,0,175,0,0,0,0,91.5,0,0,0,0,0,0,0,0,0,0,0,0.0,0,0,0,0,0,0,0,0,0,"新潟地熱資源図説明書,地質調査所,1993"
養老渓谷温泉,千葉県,大多喜町,粟又,http://www.yorokeikoku.com,4.28,1136,10,8,6,3,1,8,0,True,True,True,False,True,False,False,False,False,False,35.2403960363769,140.169174194336,千葉県,0,140.0,17.0,39.0,35.0,25.0,32.0,0,不明,温泉・鉱泉,0,0,0,24.6,0,0,8.1,0,0,0,0,0,0,0,0,0,0,0,11500.0,316.0,0,0,242,419.0,207.0,0,0,0,0,0,0,0,0,0,0,0,0,0,162.0,142,0,0,0,0,0,0,0,0,0,0,0,1075.0,0,0,0,0,0,0,0,0,0,0,14.3,0.0,0,0,0,0,0,0,0,0,1991.3.,"千葉県の温泉の化学,温泉科学　第42巻,1991"
天津小湊温泉,千葉県,鴨川市,天津,,4.17,5897,8,8,8,7,1,8,0,True,True,True,False,False,False,False,False,False,False,35.123389,140.1838421,千葉県,0,140.0,20.0,55.0,35.0,10.0,52.0,0,不明,温泉・鉱泉,0,0,0,15.2,0,0,8.65,0,0,0,0,1700.0,0,0,0,0,0,0,644.0,14.0,0,0,2.46,0.78,2.56,0,0,0,0,0,0,0,0,0,0,0,0,0,0.38,0,0,0.308,1.82,0,0,0,13.3,0,0,0,0,1460.0,0,0,0,0,0,0,0,0,86.5,0,0.9,0.0,0,0,0,0,0,0,0,0,1991.3.,"千葉県の温泉の化学,温泉科学　第42巻,1991"
白浜温泉,千葉県,南房総市,白浜町白浜,,3.87,7754,8,8,7,2,2,8,1,True,True,True,False,False,False,False,False,False,False,34.905537,139.870395,千葉県,0,140.0,3.0,18.0,35.0,4.0,37.0,0,不明,温泉・鉱泉,0,0,0,18.4,0,0,8.4,0,0,0,0,1640.0,0,0,0,0,0,0,623.0,5.59,0,0,2.53,0.97,4.81,0,0,0,0,0,0,0,0,0,0,0,0,0,1.39,0.53,0,0.007,0,0,0,0,20.5,0,0,0,0,1020.0,0,0,0,0,0,0,0,0,75.79,0,2.3,0.0,0,0,0,0,0,0,0,0,1991.3.,"千葉県の温泉の化学,温泉科学　第42巻,1991"
塔之沢温泉,神奈川県,箱根町,塔之澤,,4.38,1771,8,8,7,6,0,8,4,True,False,False,False,False,False,False,False,False,False,35.2327780859375,139.093353271484,神奈川県,松田町寄１番１２３,139.0,9.0,40.0,35.0,21.0,40.0,134.0,井戸,温泉・鉱泉,700.0,0,0,24.3,74.88,0,6.4,0,0,0,0,6029.0,0,0,0,0,0,0.06,782.0,5.59,0,0,0,0.17,1245.0,0,0,0,0.14,1.47,0,0,0,0,0,0,0,2595.0,0,0,0,0,0,0,0,0,1139,0,0,0,0,9.8,0,0,0,0,0,0,0,0,0,0,9.1,0.0,0,4.05,0,0,0,0,0,0,1974.9.11.,"松田町寄（やどろぎ）の塩化カルシウム型温泉（冷鉱泉）,神奈川県温研報告,1976"
咲花温泉,新潟県,阿賀野市,小松,http://www.sakihana.jp,3.89,2850,8,8,8,7,0,8,0,False,True,False,True,True,False,False,False,False,False,37.7361671,139.2930386,新潟県,新発田市,139.0,24.0,51.0,37.0,55.0,59.0,0,不明,温泉・鉱泉,350,0,0,27.0,30.0,0,8.5,0,0,0,0,0,0,0,0,0,0,0,0,0,0,0,0,0,0,0,0,0,0,0,0,0,0,0,0,0,0,0,0,0,0,0,0,0,0,0,0,0,0,0,0,0,0,0,0,0,0,0,0,0,0,0,0,0.0,0,0,0,0,0,0,0,0,0,"新潟地熱資源図説明書,地質調査所,1993"
松之山温泉,新潟県,十日町市,松之山湯本,,4.55,683,10,8,6,5,0,7,1,False,True,False,False,False,False,False,False,False,False,37.064431,138.598047,新潟県,南魚沼郡六日町,138.0,57.0,59.0,37.0,5.0,35.0,0,不明,温泉・鉱泉,851,0,0,25.1,8.0,0,>8.5,0,0,0,0,0,0,0,0,0,0,0,0,0,0,0,0,0,0,0,0,0,0,0,0,0,0,0,0,0,0,0,0,0,0,0,0,0,0,0,0,0,0,0,0,0,0,0,0,0,0,0,0,0,0,0,0,0.0,0,0,0,0,0,0,0,0,0,"新潟地熱資源図説明書,地質調査所,1993"
ほたる温泉,長野県,山ノ内町,大字平穏,,3.63,1182,8,8,7,6,0,8,0,True,False,True,True,True,False,False,False,False,False,36.6836368,138.4965264,長野県,下水内郡栄村,138.0,38.0,5.0,36.0,51.0,4.0,0,不明,温泉・鉱泉,0,0,0,45,18.0,0,6.7,0,0,0,0,0,0,0,0,0,0,0,5664.0,329.4,0,0,0,284.7,1829.0,0,0,0,0,0,0,0,0,0,0,0,0,11180.0,0,0,0,0,0,0,0,0,1202.0,0,0,0,0,1577.0,0,0,0,0,0,0,0,0,101.5,0,0,0.0,0,0,0,0,0,0,0,0,0,新潟地熱資源図説明書，地質調査所，1993
湯村温泉,兵庫県,新温泉町,湯,,4.46,3991,9,8,6,5,2,8,0,True,True,True,False,True,True,False,True,False,False,35.555383,134.488253,兵庫,0,134.0,37.0,42.0,35.0,36.0,25.0,0,不明,温泉・鉱泉,0,0,0,0,0,0,7.4,0,0,0,0,0,2860.0,0,0,0,0,0.24,346.0,8.0,0,0,0,1.0,197.0,0,0,0.04,0.07,0.05,0,0,0,0,0,0,4.11,612.0,1.98,0.05,0,0,0,0,0,0,343.0,0,0,0,0,0,0,0,0,0,0,0,0,0,57.0,0,0,0.0,<0.5,0,10.8,0.08199999999999999,0,0,0.87,0,1995.11.17.,"兵庫県北西部浜坂周辺温泉の成因,温泉科学,1996"
湯の峰温泉,和歌山県,田辺市,本宮町湯峯,http://www.hongu.jp/onsen/yunomine,4.44,451,9,8,5,5,0,8,0,False,True,True,True,False,False,False,True,False,False,33.8283742,135.7571793,和歌山県,東牟婁郡本宮町,135.0,46.0,10.0,33.0,49.0,8.0,0,不明,温泉・鉱泉,0,0,0,72,576,0,7,0,0,0,0,1422,0,0,0,0,0,0,304,15,0,0,0,6.792,20.11,0,0,0,0,0,0,0,0,0,0,0,0,134.6,0,0,0,0,0,0,0,0,14.24,0,0,0,0,700.9,0,0,0,0,0,0,0,0,0,0,0,0.0,0,0,0,0,0,0,0,0,1975,"湯の峰・渡瀬・川湯温泉の化学成分と地球化学温度計による地下温度の推定,温泉工学会誌,1981"
鳥取温泉,鳥取県,鳥取市,永楽温泉町,,4.35,5350,8,8,7,1,1,8,0,False,True,True,False,False,True,False,False,False,False,35.492493,134.2312837,鳥取県,0,134.0,22.0,0.0,35.0,33.0,0.0,0,不明,温泉・鉱泉,0,0,0,51.0,0,0,7.9,0,0,0,0,0,0,0,0,0,0,0,275.0,11.1,0,0,0,5.9,242.0,0,0,0,0,0,0,0,0,0,0,0,0,160.0,0,0,0,0,0,0,0,0,0,0,0,0,0,0,0,0,0,0,0,0,0,0,0,0,0,0.0,0,0,0,0,0,0,0,0,1963,"日本の熱水系の水素，酸素の同位元素比と主成分化学について,地球科学ジャーナル1973"
はわい温泉,鳥取県,湯梨浜町,大字はわい温泉,http://www.hawai-togo.jp,4.13,1870,8,8,7,5,0,8,0,False,True,False,False,True,True,False,False,False,False,35.476535,133.883596,鳥取県,鳥取市,134.0,14.0,20.0,35.0,29.0,21.0,0,井戸,温泉調査井,300.0,0,14.4,52.3,56.2,0,0,0,0,0,0,0,0,0,0,0,0,0,0,0,0,0,0,0,106.7,0,0,0,0,0,0,0,0,0,0,0,0,990.0,0,0,0,0,0,0,0,0,1460.0,0,0,0,0,504.0,0,0,0,0,0,0,0,0,0,0,0,0.0,0,0,0,0,0,0,0,0,1961.4.27.,"鳥取市内温泉の試錐による調査研究水温および化学成分について,岡山大学温研報告,1963"
湯坪温泉,大分県,九重町,大字湯坪,http://www.kokonoe-k.com/spring03/,―,305,17,8,0,7,0,8,0,True,True,False,True,False,False,False,False,False,False,33.132735,131.193264,大分県,湯布院町大字湯平字栗谷,131.0,18.0,39.0,33.0,13.0,33.0,650.0,井戸,温泉・鉱泉,478.0,0,19.6,76.1,18.0,0,8.3,8.67,0,0,0,904.0,0,0,0,0,0,0.72,259.0,16.3,0.13,0.04,0.05,2.73,34.9,0,0,0.0,0.01,0,0,0.09,0.0,0,0,0,2.4,270.0,0.64,0.07,0,0,0,0,0,0,135.0,0,0,0,0,185.0,0,0,0,0,0,0,0,0,69.5,0,0,0.0,0.0,116.0,0,0.069,0.0004,0,3.02,0,1984-09-04 00:00:00,"平成元年度 全国地熱資源総合調査 広域熱水流動調査（第3次）鶴見岳地域 流体地化学調査報告書(要旨),1990"
玉名温泉,熊本県,玉名市,立願寺,http://tamanaonsen.kumanomoto.com,4.09,1836,11,8,7,8,3,7,0,True,False,False,False,False,True,False,False,False,False,32.938863,130.558503,熊本県,0,130.0,47.0,40.0,33.0,1.0,2.0,0,井戸,温泉・鉱泉,0,0,0,42.9,100.8,0,9.15,0,0,1.0001,0,324.5,0,0,0,0,0,0,79.96,3.7,0,0,0.77,0.17,9.28,0,0,0.06,0.09,0.26,0,0.26,0.02,0,0,0,1.9,14.89,0,0,11.95,0,0,0,0,0,36.99,0,0,0.05,0,109.55,9.67,0.01,0,0.02,0,0,0.07,0,0,40.23,5.08,0.0,0,0,0,0,0,0,0,mg/kg,1962-04-01 00:00:00,"熊本県鉱泉誌 第Ⅱ巻,熊本県衛生公害研究所報,1978"
