name,prefecture,city,lv01Nm,link,hyoka,comi,yado,onsen_num,dai,roten,sauna,kinen,kokyu,tanjun,enka,tansan,iou,housya,ryusan,sansei,gantetsu,nisan,youso,latitude,longitude
箱根温泉,神奈川県,箱根町,仙石原,http://www.hakone-ryokan.or.jp,4.22,78705,234,212,150,146,39,205,45,True,True,True,True,True,True,True,False,False,False,35.262245,139.012143
由布院温泉,大分県,由布市,湯布院町川上,http://www.yufuin.gr.jp,4.52,22264,139,134,45,97,3,130,21,True,True,True,True,True,True,False,True,False,False,33.2574025,131.3279616
伊豆高原温泉,静岡県,伊東市,八幡野,,4.52,22918,135,133,24,77,9,129,21,True,True,False,False,True,True,False,False,False,False,34.8813335,139.1226735
別府温泉郷,大分県,別府市,観海寺,http://www.gokuraku-jigoku-beppu.com/,4.25,54139,126,117,62,75,24,114,11,True,True,True,True,True,True,True,True,False,False,33.3180208,131.4819999
草津温泉,群馬県,草津町,大字草津,http://www.kusatsu-onsen.ne.jp,4.30,34133,121,115,53,37,8,110,8,False,True,True,True,True,True,True,False,False,False,36.6212737,138.5966323
白馬八方温泉,長野県,白馬村,大字北城,http://hakuba-happo-onsen.jp,4.31,8239,123,114,49,27,15,113,6,True,True,True,False,True,False,False,False,False,False,36.6973871,137.869827
那須温泉郷,栃木県,那須町,大字高久丙,http://www.nasuonsen.com,4.19,35195,113,101,45,61,14,101,9,True,True,True,True,True,True,True,False,False,False,37.0834479467773,140.01416015625
奥飛騨温泉郷,岐阜県,高山市,奥飛騨温泉郷平湯,http://www.okuhida.or.jp/,4.31,13414,110,96,54,91,6,87,3,True,True,True,True,False,False,False,False,False,False,36.262067331543,137.570129394531
湯沢温泉郷,新潟県,湯沢町,大字土樽,http://www.yuzawaonsen.jp,4.19,18139,92,83,49,26,14,80,2,True,True,True,True,True,True,False,False,False,False,36.7905895,138.7919187
妙高高原温泉郷,新潟県,妙高市,大字関川,http://myoko-note.jp/spa/,4.23,5129,97,81,44,15,3,80,2,True,True,True,True,True,True,False,True,False,False,36.862849,138.1790601
熱海温泉,静岡県,熱海市,西熱海町一丁目,http://www.atamispa.com,4.12,40267,77,71,50,49,18,70,15,True,True,True,False,True,True,False,True,False,False,35.1169364,139.073482
片品温泉郷,群馬県,片品村,大字戸倉,http://www.oze-info.com/onsen/index.html,4.33,2611,72,65,37,7,3,63,0,True,True,False,True,False,False,False,False,False,False,36.807685,139.235485
湯田中渋温泉郷,長野県,山ノ内町,大字平穏,http://www.yudanaka-onsen.info,4.33,11441,75,65,39,33,7,61,5,True,True,True,True,True,True,False,True,False,False,36.7405865,138.4161556
鳥羽温泉郷,三重県,鳥羽市,相差町,http://www.toba-onsen.com,4.24,36938,73,64,59,46,12,70,6,True,True,True,False,False,True,False,False,False,False,34.389597,136.903956
城崎温泉,兵庫県,豊岡市,城崎町今津,http://www.kinosaki-spa.gr.jp,4.24,17015,67,63,31,22,6,62,6,True,True,False,True,False,True,False,False,False,False,35.6289809,134.7981048
白浜温泉,和歌山県,白浜町,－,http://www.nanki-shirahama.com/index.php,4.10,30855,61,58,36,25,11,58,3,False,True,True,True,True,False,False,False,False,False,33.6829695837402,135.347747802734
湯河原温泉,神奈川県,熱海市,泉,http://www.yugawara.or.jp,4.16,13361,61,55,40,38,9,51,11,True,True,False,False,True,True,False,False,False,False,35.1422209875488,139.084823608398
乗鞍高原温泉,長野県,松本市,安曇,http://www.spa-norikura.com,4.42,3914,64,55,12,36,2,52,0,True,False,True,True,True,False,True,False,False,False,36.1250811,137.649817
加賀温泉郷,石川県,小松市,粟津町,http://www.tabimati.net/,4.10,34392,57,53,50,50,16,52,6,True,True,False,False,True,True,False,False,False,False,36.288743,136.360931
野沢温泉,長野県,野沢温泉村,大字豊郷,http://nozawakanko.jp,4.28,3589,60,51,25,8,3,58,2,True,True,False,True,True,True,False,False,False,False,不明,不明
鳴子温泉郷,宮城県,大崎市,鳴子温泉,http://www.naruko.gr.jp,4.01,13658,63,50,35,27,1,48,1,True,True,True,True,True,True,False,False,False,False,不明,不明
伊東温泉,静岡県,伊東市,末広町,http://www.ito.or.jp,4.23,29583,51,49,33,32,9,47,9,True,True,False,False,False,True,False,False,False,False,34.9722952,139.088234
鉄輪温泉,大分県,別府市,御幸,http://www.kannawaryokan.com,4.22,8971,53,49,19,32,12,47,3,True,True,True,True,True,True,True,True,False,False,33.3159843,131.4777943
石和温泉,山梨県,笛吹市,石和町市部,http://www.isawaonsen.or.jp,4.11,19624,52,47,41,39,13,45,1,True,False,False,True,False,True,False,False,False,False,35.658363,138.652243
塩原温泉郷,栃木県,那須塩原市,塩原,http://www.siobara.or.jp/,4.27,14550,53,47,33,35,5,42,3,True,True,True,True,False,True,True,False,False,False,36.9886993,139.806006
仙石原温泉,神奈川県,箱根町,仙石原,http://www.sengokuhara-onsen.com,4.24,13689,51,46,31,29,6,45,11,True,True,True,True,True,True,True,False,False,False,35.262245,139.012143
富士河口湖温泉,山梨県,富士河口湖町,船津,http://www.fujisan.ne.jp,4.07,24039,51,46,34,28,13,50,7,True,True,True,False,True,True,False,False,False,False,35.496232,138.75507
強羅温泉,神奈川県,箱根町,強羅,http://hakone-gora.com,4.24,19287,48,44,28,23,7,42,9,True,True,True,True,True,True,True,False,False,False,35.2513346,139.0490245
赤倉温泉,新潟県,妙高市,大字赤倉,http://www.akakura.gr.jp,4.28,2654,52,44,25,6,2,44,0,True,True,True,False,True,True,False,False,False,False,36.8867341,138.1801624
河津温泉郷,静岡県,河津町,見高,http://www.kawazu-onsen.com,4.56,4116,51,44,16,28,4,39,3,True,True,False,False,True,True,False,False,False,False,34.7946071,138.9330896
水上温泉郷,群馬県,みなかみ町,湯原,http://www.minakami-onsen.com,4.34,15546,49,44,25,26,4,43,4,True,False,True,True,True,True,False,False,False,False,36.783736,138.960023
松崎温泉郷,静岡県,松崎町,江奈,http://izumatsu-ryokan.jp/,4.23,2657,46,42,15,14,0,35,0,True,True,True,False,True,True,False,False,False,False,34.738536,138.762464
伊香保温泉,群馬県,渋川市,伊香保町伊香保,http://www.ikaho-kankou.com,4.13,28488,43,41,34,30,10,41,3,True,True,True,True,True,True,False,True,False,False,36.4916224,138.9151614
下呂温泉,岐阜県,下呂市,湯之島,http://www.gero-spa.or.jp,4.16,24715,41,41,33,27,7,39,7,True,False,False,True,False,False,False,False,False,False,35.805407,137.239053
越後湯沢温泉,新潟県,湯沢町,大字湯沢,https://www.snow-country-tourism.jp/,4.25,11302,43,40,22,17,11,37,1,True,True,False,True,False,True,False,False,False,False,36.93795,138.80853
別府温泉,大分県,別府市,中央町,http://www.gokuraku-jigoku-beppu.com/,4.12,27369,39,39,30,25,7,39,3,True,True,True,False,True,False,False,False,False,False,33.2788746,131.502199
箱根湯本温泉,神奈川県,箱根町,湯本,http://www.hakoneyumoto.com,4.14,23639,42,38,33,36,12,38,7,True,True,False,True,True,True,False,False,False,False,35.2255759375,139.096145629883
山中湖温泉,山梨県,山中湖村,山中,,4.30,3020,41,38,18,12,5,41,3,True,False,False,False,False,False,False,False,False,False,35.421711,138.902692
鬼怒川温泉,栃木県,日光市,鬼怒川温泉滝,,4.15,33993,39,37,32,33,17,37,7,True,True,False,False,True,False,False,False,False,False,36.813718,139.709392
日光温泉,栃木県,日光市,所野,,4.25,9285,39,37,15,21,3,38,5,True,False,False,False,False,False,False,False,False,False,36.751159,139.608915
有馬温泉,兵庫県,神戸市北区,有馬町,http://www.arima-onsen.com,4.22,21059,40,37,33,26,15,37,13,True,True,False,False,True,True,False,True,False,False,34.7945649,135.2466489
道後温泉郷,愛媛県,松山市,二番町三丁目,https://dogo.jp/,4.34,37581,38,36,27,24,10,37,3,True,False,False,True,False,False,False,False,False,False,不明,不明
土肥温泉,静岡県,伊豆市,土肥,http://www.toi-annai.com,4.37,9945,37,35,17,21,4,30,3,True,True,False,False,True,True,False,False,False,False,34.911947,138.791034
飛騨高山温泉,岐阜県,高山市,西之一色町二丁目,,4.28,22746,36,35,28,21,9,35,5,True,True,True,False,True,False,False,False,False,False,36.1420085,137.2451486
伊豆長岡温泉,静岡県,伊豆の国市,古奈,http://izuspa.com,4.21,17313,35,34,33,31,9,34,2,True,False,False,True,False,False,False,False,False,False,35.0311334,138.9322317
南阿蘇温泉,熊本県,南阿蘇村,大字久石,http://minamiaso-onsen.jp,4.39,9791,40,34,13,16,8,35,3,True,False,True,True,True,True,True,False,False,False,32.929869,131.042581
飯坂温泉,福島県,福島市,飯坂町,http://www.iizaka.com,3.83,7750,38,33,27,10,3,33,0,True,False,False,False,False,True,False,False,False,False,37.8363234,140.4504103
蔵王温泉,山形県,山形市,蔵王温泉,http://www.zao-spa.or.jp,4.39,12052,37,32,19,21,5,32,1,False,True,False,True,True,True,True,True,False,False,38.164156,140.393245
塩原温泉,栃木県,那須塩原市,塩原,http://www.siobara.or.jp/,4.21,10416,36,32,21,23,3,27,1,True,True,True,False,False,True,False,False,False,False,36.9557312,139.8287983
四万温泉,群馬県,中之条町,大字四万,http://shimaonsen.com,4.31,11182,32,32,17,26,1,32,3,True,True,True,False,True,True,False,False,False,False,36.6765806,138.782647
夕日ヶ浦温泉,京都府,京丹後市,網野町浜詰,,4.38,4042,32,31,23,19,0,30,9,True,False,False,False,False,False,False,False,False,False,35.6615157263184,134.966873168945
新穂高温泉,岐阜県,高山市,奥飛騨温泉郷神坂,http://shinhotaka.com,4.37,2233,36,30,14,29,1,28,0,True,True,True,True,False,False,False,False,False,False,36.2542236,137.5467826
遠刈田温泉,宮城県,不明,不明,http://togatta.jp,4.38,5693,30,29,17,16,4,28,3,True,True,True,True,True,True,False,True,False,False,38.108273996582,140.564270019531
道後温泉,愛媛県,松山市,道後鷺谷町,http://www.dogo.or.jp/,4.39,21486,29,29,20,18,4,29,3,True,False,False,False,False,False,False,False,False,False,33.851718,132.787413
黒川温泉,熊本県,南小国町,大字満願寺,http://www.kurokawaonsen.or.jp,4.58,6286,32,29,20,26,4,29,2,True,True,True,True,True,True,True,False,False,False,33.0642164,131.1509484
片品温泉,群馬県,片品村,大字土出,,4.41,1054,30,28,18,4,2,26,0,True,False,False,True,False,False,False,False,False,False,36.804691,139.233938
戸倉上山田温泉,長野県,千曲市,上山田温泉一丁目,http://chikuma-kanko.com/modules/contents/index.php?content_id=4,4.17,10263,32,28,27,20,8,28,3,True,False,False,True,False,False,False,False,False,False,36.4778838293457,138.144714355469
上諏訪温泉,長野県,諏訪市,高島二丁目,http://www.suwako-onsen.com,4.20,18501,29,28,18,15,3,26,2,True,False,True,True,False,False,False,False,False,False,36.0638831,138.1073154
渋温泉,長野県,山ノ内町,大字平穏,http://www.shibuonsen.net,4.22,4632,30,27,16,13,1,24,1,True,True,False,True,True,True,False,True,False,False,36.734502,138.43227
越前玉川温泉,福井県,越前町,茂原,,4.42,1590,30,27,12,2,0,27,6,True,True,True,False,False,True,False,False,False,False,35.8935596,135.9956754
嬉野温泉,佐賀県,嬉野市,嬉野町大字岩屋川内,http://spa-u.net,4.20,13798,29,27,22,22,5,26,1,True,True,True,False,False,False,False,True,False,False,不明,不明
雲見温泉,静岡県,松崎町,雲見,http://kumomikankou.com,4.38,1341,28,26,10,10,0,20,0,True,True,False,False,False,True,False,False,False,False,34.72444,138.745373
弓ヶ浜温泉,静岡県,南伊豆町,湊,,4.30,1375,26,26,5,7,0,21,0,True,True,False,False,False,True,False,False,False,False,34.6367697851562,138.890686035156
湯の川温泉,北海道,函館市,湯川町一丁目,http://hakodate-yunokawa.jp,4.24,11967,26,25,22,18,8,25,4,False,True,False,False,False,False,False,False,False,False,41.778593,140.789076
新那須温泉,栃木県,那須町,大字湯本,http://www.nasuonsen.com,4.04,10106,26,25,15,13,4,25,3,True,True,True,True,False,False,True,False,False,False,37.0834479467773,140.01416015625
池の平温泉,新潟県,妙高市,大字関川,http://www.ikenotaira.jp,4.37,1169,28,25,11,2,1,24,0,True,True,True,True,False,True,False,False,False,False,36.867742,138.17782
穂高温泉郷,長野県,安曇野市,穂高有明,http://www.hotakaonsen.com,4.35,1732,27,24,10,10,0,23,1,True,False,False,True,False,False,False,False,False,False,36.3747717,137.8302506
網代温泉,静岡県,熱海市,下多賀,http://www.ajirospa.com,4.09,6404,27,24,7,13,2,22,3,True,True,False,False,False,True,False,False,False,False,35.044791,139.066573
今井浜温泉,静岡県,河津町,見高,https://www.kawazu-onsen.com/yado/imaispa.html,4.66,2258,25,24,6,11,3,21,1,True,True,False,False,False,False,False,False,False,False,34.752142,139.001306
久美浜温泉郷,京都府,京丹後市,久美浜町湊宮,,4.36,2227,25,24,13,8,0,24,3,False,True,False,True,True,True,False,False,False,False,35.6431196,134.9104353
香住温泉,兵庫県,香美町,香住区七日市,,4.44,2658,26,24,12,7,1,25,1,True,True,False,False,False,True,False,False,False,False,35.6460463,134.6128711
指宿温泉,鹿児島県,指宿市,東方,http://www.ibusuki.or.jp/spa/,4.12,9710,26,24,17,13,4,24,1,False,True,False,True,False,False,False,False,False,False,31.23569,130.649397
秩父温泉,埼玉県,秩父市,黒谷,,4.27,9805,28,24,21,17,2,26,0,True,True,True,True,False,False,False,False,False,False,36.027005,139.121047
戸狩温泉,長野県,飯山市,大字豊田,http://www.togarionsen.jp,3.76,356,25,22,12,0,0,22,0,True,False,False,False,False,False,False,False,False,False,36.921071,138.3820139
下田温泉,静岡県,下田市,柿崎,http://hotel.shimoda100.com,3.95,6214,23,22,12,9,2,21,1,True,True,False,False,False,False,False,False,False,False,34.6685843603516,138.940246582031
新平湯温泉,岐阜県,高山市,奥飛騨温泉郷一重ヶ根,http://shinhirayuonsen.com,4.33,3233,24,22,11,21,1,20,0,True,False,True,True,False,False,False,False,False,False,36.231434,137.53232
筋湯温泉,大分県,九重町,大字湯坪,http://www.sujiyu-onsen.com/,4.43,1852,25,22,7,16,1,18,0,True,True,False,False,False,False,False,False,False,False,33.1150298254394,131.186386108398
奥日光湯元温泉,栃木県,日光市,湯元,http://www.nikkoyumoto.com,4.43,5658,23,21,16,16,1,18,1,False,True,True,True,True,True,True,True,False,False,36.806707,139.423924
浅間温泉,長野県,松本市,浅間温泉一丁目,http://www.asamaonsen.com,4.30,4726,25,21,18,12,2,21,0,True,False,False,True,False,False,False,False,False,False,36.262964,137.991942
和倉温泉,石川県,七尾市,和倉町,http://www.wakura.or.jp,4.03,11910,21,21,21,17,8,21,4,False,True,False,False,False,False,False,False,False,False,37.0897155,136.9174737
平湯温泉,岐阜県,高山市,奥飛騨温泉郷平湯,http://hirayuonsen.or.jp,4.12,4610,23,21,12,19,3,19,1,True,True,True,True,False,False,False,False,False,False,不明,不明
かみのやま温泉,山形県,上山市,葉山,http://kaminoyama-spa.com,4.29,7154,22,20,18,12,4,20,3,True,True,False,False,True,True,False,False,False,False,38.160768,140.276639
岩原温泉,新潟県,湯沢町,大字土樽,http://yuzawa.jp,4.00,774,22,20,14,2,2,17,1,True,True,False,True,False,False,False,False,False,False,36.937616,138.843273
山代温泉,石川県,加賀市,山代温泉,http://www.yamashiro-spa.or.jp,4.21,12483,21,20,20,20,8,20,2,True,True,False,False,True,True,False,False,False,False,36.288948,136.363087
三国温泉,福井県,坂井市,三国町緑ケ丘四丁目,,3.99,1585,23,20,9,6,1,19,3,True,True,True,True,False,True,False,False,False,False,36.222126,136.1373522
皆生温泉,鳥取県,米子市,皆生温泉三丁目,http://www.kaike-onsen.com/index_pc.html,4.16,16888,21,20,18,15,7,20,1,False,True,False,False,False,False,False,False,False,False,35.4549935,133.3610501
湯平温泉,大分県,由布市,湯布院町湯平,http://www.yunohira-onsen.jp,4.74,1601,20,20,4,13,1,19,1,True,True,True,False,False,True,False,False,False,False,33.195063,131.32685
湯田中温泉,長野県,山ノ内町,大字平穏,http://www.avis.ne.jp/~yudanaka/,4.23,3767,22,19,15,10,4,19,3,True,True,True,True,False,True,False,False,False,False,36.738663,138.419993
昼神温泉,長野県,阿智村,智里,http://hirugamionsen.jp,4.36,7059,19,19,19,14,5,19,2,True,False,False,True,False,False,False,False,False,False,不明,不明
芦原温泉,福井県,あわら市,温泉四丁目,http://awara.info,4.17,16587,20,19,18,16,6,19,2,True,True,False,False,False,False,False,False,False,False,36.2251264,136.1920006
佐津温泉,兵庫県,香美町,香住区訓谷,http://kasumi-kanko.com/stay/sazu/stay_cat_sazu.html,4.54,1071,19,19,6,5,1,18,3,False,True,True,True,True,True,False,False,False,False,35.6525995,134.6914331
霧島温泉,鹿児島県,霧島市,牧園町高千穂,http://kirishimakankou.com,4.41,10234,21,19,9,17,5,19,5,True,True,True,True,False,False,False,False,False,False,31.9029762,130.8547158
熊野本宮温泉郷,和歌山県,田辺市,本宮町川湯,http://www.hongu.jp,4.39,3928,21,19,9,14,0,18,1,True,True,True,True,False,False,False,True,False,False,33.829783,135.757974
南知多温泉郷,愛知県,南知多町,大字内海,http://minamichita-kk.com/spa,3.96,3839,25,19,20,13,3,24,1,True,True,True,False,False,False,False,False,False,False,34.7315944,136.8724887
花巻温泉郷,岩手県,花巻市,鉛,,4.36,15900,24,19,16,12,6,19,3,True,True,True,True,True,True,False,False,False,False,39.453714,141.05478
東山温泉,福島県,会津若松市,東山町大字石山,http://www.aizu-higashiyama.com/index.html,3.94,16900,18,18,16,10,3,18,1,True,True,False,False,True,True,False,False,False,False,37.473757,139.96228
尾瀬戸倉温泉,群馬県,片品村,大字戸倉,,4.43,1044,20,18,8,0,1,17,0,True,True,False,True,False,False,False,False,False,False,36.8383043,139.2460807
猿ヶ京温泉,群馬県,みなかみ町,猿ヶ京温泉,http://www.sarugakyo-ryokan.com/,4.29,4947,20,18,13,15,1,18,0,True,True,False,False,True,True,False,False,False,False,36.7284662,138.888361
鴨川温泉,千葉県,鴨川市,西町,http://www.kamogawa-hotel.info,4.22,7573,20,18,14,9,3,19,1,True,True,True,True,False,False,False,False,False,False,35.0793452,140.0980036
三朝温泉,鳥取県,三朝町,大字山田,http://spa-misasa.jp,4.32,6689,20,18,14,11,5,18,1,True,True,True,False,True,True,False,False,False,False,35.406954,133.893779
湯田温泉,山口県,山口市,湯田温泉四丁目,http://www.yudaonsen.com,4.20,13265,18,18,14,9,5,18,2,True,False,False,True,False,False,False,False,False,False,34.164037,131.457221
鳴子温泉,宮城県,大崎市,鳴子温泉,http://www.naruko.gr.jp,4.05,10009,19,17,14,10,0,17,0,True,True,True,True,True,True,False,False,False,False,不明,不明
湯野浜温泉,山形県,鶴岡市,湯野浜一丁目,http://www.yunohamaonsen.com,4.12,5744,18,17,16,9,5,17,1,True,True,False,False,True,True,False,False,False,False,38.783523,139.754222
苗場温泉,新潟県,湯沢町,大字三国,,4.19,2028,20,17,10,5,0,20,0,True,True,True,False,True,True,False,False,False,False,36.7906816,138.792326
山中温泉,石川県,加賀市,山中温泉下谷町,https://www.yamanaka-spa.or.jp,3.99,7306,19,17,15,16,5,17,4,True,False,False,False,True,True,False,False,False,False,36.2468657629394,136.373641967773
熱川温泉,静岡県,東伊豆町,奈良本,http://www.atagawa.net,4.24,6614,17,17,11,13,4,16,1,False,True,False,False,True,True,False,False,False,False,34.8163963,139.0720849
湯原温泉郷,岡山県,真庭市,湯原温泉,http://www.yubara.com,4.30,5535,18,17,10,12,2,17,1,True,False,False,False,False,False,False,False,False,False,35.1999311,133.7325018
八幡平温泉,岩手県,八幡平市,松尾寄木,http://www.hachimantai.or.jp/onsen/search.cgi,4.26,1607,19,16,5,4,2,16,1,True,False,False,True,False,False,False,False,False,False,39.902998,140.975115
秋保温泉,宮城県,仙台市太白区,秋保町湯元,http://akiuonsenkumiai.com,4.11,21611,19,16,16,12,7,18,4,False,True,False,True,True,False,False,False,False,False,38.226743,140.7181364
湯野上温泉,福島県,下郷町,大字湯野上,http://yunokami.com,4.03,1477,23,16,11,12,0,15,1,True,False,False,True,False,False,False,False,False,False,37.3026994,139.8963801
姥子温泉,神奈川県,箱根町,仙石原,,4.11,7238,17,16,13,13,5,16,1,True,True,True,True,True,True,False,False,False,False,35.2476078,138.9987311
鹿教湯温泉,長野県,上田市,西内,http://www.kakeyu.or.jp,4.05,2371,20,16,16,11,0,16,0,True,False,False,False,False,False,False,False,False,False,36.3012855,138.1349177
氷見温泉郷,富山県,氷見市,阿尾,https://kitokitohimi.com/site/stay/himionsen.html,4.02,3459,18,16,13,8,1,17,0,True,True,True,False,False,False,False,False,False,False,36.8449209,136.9973356
玉造温泉,島根県,松江市,玉湯町玉造,http://tamayado.com,4.23,12372,17,16,15,14,4,16,2,True,True,False,False,True,True,False,False,False,False,35.4146962,133.0101908
湯田温泉峡,岩手県,西和賀町,湯川,http://www.yamanoideyu.com,4.20,1231,18,16,11,6,0,16,1,True,True,False,False,True,True,False,False,False,False,不明,不明
六日町温泉郷,新潟県,南魚沼市,小栗山,http://www.muikamachi.jp/hotspring/index.html,4.17,1910,22,16,11,7,0,16,0,True,True,False,False,False,False,False,False,False,False,37.071185,138.848245
定山渓温泉,北海道,札幌市南区,定山渓温泉東二丁目,http://jozankei.jp,4.17,12490,17,15,13,14,7,15,4,True,True,False,False,False,False,False,False,False,False,42.9705042,141.1647216
肘折温泉,山形県,大蔵村,大字南山,http://hijiori.jp,4.39,2023,19,15,12,5,0,15,1,True,True,True,False,False,False,False,False,False,False,38.6081559,140.167102
磐梯熱海温泉,福島県,郡山市,熱海町熱海五丁目,http://www.bandaiatami.or.jp,4.27,5825,20,15,12,13,4,15,4,True,False,False,False,False,True,True,False,False,False,37.491392,140.256629
いわき湯本温泉,福島県,いわき市,常磐湯本町,http://www.iwakiyumoto.or.jp,4.15,5195,17,15,12,5,1,13,0,True,True,True,True,True,True,False,False,False,False,37.0076668,140.8467882
那須湯本温泉,栃木県,那須町,大字湯本,http://www.nasuonsen.com,4.10,2228,18,15,7,4,0,13,0,True,True,False,True,False,True,True,False,False,False,37.094196,140.002625
老神温泉,群馬県,沼田市,利根町老神,http://www.oigami.net,4.20,4548,17,15,10,12,2,15,0,True,False,True,True,False,False,False,False,False,False,36.672591,139.210266
修善寺温泉,静岡県,伊豆市,修善寺,http://shuzenji.info,4.51,4605,18,15,12,11,4,13,6,True,False,False,False,False,False,False,False,False,False,34.9701534,138.9239397
堂ヶ島温泉,静岡県,西伊豆町,仁科,,4.46,6086,16,15,7,8,1,15,2,True,False,False,False,False,True,False,False,False,False,34.769611,138.77427
稲取温泉,静岡県,東伊豆町,稲取,http://www.inatorionsen.or.jp,4.35,6111,15,15,11,9,5,14,2,True,True,False,False,False,False,False,True,False,False,34.771009,139.04671
天ヶ瀬温泉,大分県,日田市,天瀬町湯山,http://www.okaeriamagase.com,4.32,1211,21,15,8,13,0,14,2,True,True,True,True,False,False,False,False,False,False,33.241178,131.031915
登別温泉,北海道,登別市,登別温泉町,http://www.noboribetsu-spa.jp/?lang=ja,4.23,13471,16,14,13,13,6,14,3,False,True,False,True,True,True,True,True,False,False,42.495933,141.141732
瀬波温泉,新潟県,村上市,瀬波温泉二丁目,http://www.senami.or.jp,4.23,8050,15,14,11,9,3,14,0,False,True,False,False,False,False,False,False,False,False,38.2157214,139.4389424
小浜温泉,長崎県,雲仙市,小浜町北本町,https://obama.or.jp/,4.21,3197,18,14,12,10,1,14,0,True,True,False,False,False,False,False,False,False,False,32.7187337,130.2016978
杖立温泉,熊本県,日田市,天瀬町出口,http://tsuetate-onsen.com,4.33,2710,19,14,9,7,10,12,1,True,True,True,False,False,False,False,False,False,False,33.1832480566406,131.033203125
洞爺湖温泉,北海道,壮瞥町,字洞爺湖温泉,http://www.laketoya.com,3.97,12106,14,13,12,11,6,13,0,True,True,True,False,True,True,False,False,False,False,42.56529,140.8260773
鶯宿温泉,岩手県,雫石町,鴬宿,http://www.ousyukuonsen.com,3.88,4084,18,13,9,6,3,11,1,True,False,False,True,False,False,False,False,False,False,39.6346755163574,140.920715332031
天童温泉,山形県,天童市,鎌田本町二丁目,http://www.tendoonsen.or.jp,4.16,4566,14,13,14,10,2,14,2,True,False,False,False,True,True,False,False,False,False,38.358925,140.386285
湯西川温泉,栃木県,日光市,湯西川,,4.32,7234,16,13,11,11,0,14,0,True,False,False,False,False,False,False,False,False,False,36.9628079,139.5840423
下部温泉,山梨県,身延町,上之平,http://www.shimobe.org,4.21,2328,18,13,7,3,2,14,0,True,True,False,True,False,False,False,False,False,False,35.4204,138.481111
月岡温泉,新潟県,新発田市,月岡温泉,http://www.tsukiokaonsen.gr.jp,4.44,7209,16,13,13,11,5,13,4,False,True,False,True,True,True,False,False,False,False,37.880062,139.30806
蓼科温泉,長野県,茅野市,北山,,4.20,5568,13,13,9,9,4,13,1,True,True,False,False,True,True,True,False,False,False,36.0491925,138.2557814
内海温泉,愛知県,南知多町,大字内海,http://utsumikannkou.main.jp,3.91,2603,17,13,14,9,2,16,0,True,True,False,False,False,False,False,False,False,False,34.7315944,136.8724887
湯の山温泉,三重県,菰野町,大字菰野,http://www.yunoyama-onsen.com,4.16,4636,13,13,11,9,3,13,0,True,True,True,True,False,True,False,False,False,False,35.015818,136.447384
勝浦温泉,和歌山県,那智勝浦町,大字勝浦,http://katsuuraonsen.jp,4.02,11037,13,13,8,6,1,13,1,True,True,False,True,False,False,False,False,False,False,33.6299999,135.9434055
湯本温泉,山口県,長門市,深川湯本,http://yumotoonsen.com,4.04,4034,13,13,12,8,2,11,1,True,False,False,False,False,False,False,False,False,False,34.329467,131.17202
古湯温泉,佐賀県,佐賀市,富士町大字古湯,http://www.fuji-spa.com,4.38,1428,14,13,10,6,2,13,1,True,False,False,False,False,True,False,False,False,False,33.372208,130.208156
長湯温泉,大分県,竹田市,直入町大字長湯,http://www.nagayu-onsen.com/index.php,4.55,1097,15,13,9,11,2,12,1,True,False,True,False,False,False,False,True,True,False,33.073009,131.373415
阿蘇内牧温泉,熊本県,阿蘇市,内牧,http://onsen.aso.ne.jp,4.08,4359,17,13,11,8,1,13,1,True,False,True,True,True,True,False,False,False,False,32.9756682,131.0444924
湯之谷温泉郷,新潟県,魚沼市,大湯温泉,http://www.yunotani.or.jp/onsenkyo.html,3.85,1404,18,13,10,8,1,13,0,True,False,False,False,True,False,False,False,False,False,不明,不明
小野川温泉,山形県,米沢市,小野川町,http://www.onogawa.jp/index.html/,4.30,2030,14,12,12,8,1,12,1,False,True,False,True,False,True,False,False,False,False,37.8800035,140.0546559
湯の小屋温泉,群馬県,みなかみ町,藤原,,4.11,3033,12,12,3,6,1,12,0,True,False,False,True,False,False,False,False,False,False,36.8496109,139.0665544
白子温泉,千葉県,白子町,中里,http://www.shirako-onsen.jp,4.29,1593,15,12,12,6,0,12,1,False,True,False,False,False,False,False,False,False,False,35.4325418,140.3950717
大平台温泉,神奈川県,箱根町,大平台,http://www.ohiradai.com,4.24,632,14,12,4,9,0,10,0,True,True,False,False,False,True,False,False,False,False,35.2371655,139.0734681
芦ノ湖温泉,神奈川県,箱根町,元箱根,,4.15,2864,13,12,8,7,1,11,2,True,False,False,True,False,False,False,False,False,False,35.1991336,139.0308179
美ヶ原温泉,長野県,松本市,大字里山辺,https://www.mcci.or.jp/www/utsukushi/,4.35,5132,13,12,10,9,2,12,0,True,False,False,False,False,False,False,False,False,False,36.249425,137.997586
日田温泉,大分県,日田市,隈一丁目,http://www.hita-onsen.com,4.28,3379,14,12,9,8,3,14,1,True,True,True,False,False,True,False,False,False,False,33.295183,130.934847
宝泉寺温泉,大分県,九重町,大字町田,http://www.housenji.jp,4.19,1701,15,12,6,12,0,12,1,True,True,False,False,False,False,False,False,False,False,33.1867313,131.146892
人吉温泉,熊本県,人吉市,上青井町,http://hitoyoshionsen.net,4.15,3239,19,12,8,5,2,15,0,True,True,True,False,True,True,False,False,False,False,32.2047223,130.759982
別所温泉,長野県,上田市,別所温泉,http://www.bessho-spa.jp/,4.39,3362,12,12,9,10,2,12,4,False,False,False,True,False,False,False,False,False,False,36.3490949,138.1600297
湯川温泉,岩手県,西和賀町,湯川,http://www.yamanoideyu.com/stay/index.html,4.34,1079,12,11,7,5,0,11,1,True,True,False,False,True,False,False,False,False,False,39.284519,140.771759
さくらんぼ東根温泉,山形県,東根市,温泉町一丁目,http://www.higashineonsen.com,4.04,893,14,11,9,4,1,9,0,True,True,True,True,True,False,False,False,False,False,38.458558,140.389743
両津温泉,新潟県,佐渡市,原黒,,3.82,1077,12,11,9,5,0,11,0,False,True,True,False,False,False,False,False,False,False,38.0711150305176,138.451431274414
間人温泉郷,京都府,京丹後市,丹後町間人,,4.48,1244,11,11,9,7,1,11,3,True,False,False,False,True,True,False,False,False,False,35.7173118,135.0732574
天橋立温泉,京都府,宮津市,字文珠,,4.11,3348,11,11,9,9,1,11,3,False,True,True,False,False,False,False,True,False,False,35.5592165,135.1804786
洲本温泉,兵庫県,洲本市,海岸通一丁目,,4.21,12645,11,11,9,10,9,10,3,True,True,False,False,True,True,False,False,False,False,34.3430009,134.899726
龍神温泉,和歌山県,田辺市,龍神村龍神,http://www.ryujin-kanko.jp/contents/spa/index.html,4.51,1734,11,11,6,3,0,11,0,False,False,True,False,False,False,False,False,False,False,33.949218,135.570558
湯郷温泉,岡山県,美作市,湯郷,http://spa-yunogo.or.jp,4.11,5502,12,11,11,9,2,11,0,False,True,False,False,True,False,False,False,False,False,35.005511,134.128138
武雄温泉,佐賀県,武雄市,武雄町大字昭和,http://www.takeo-kk.net,4.19,3786,13,11,9,6,2,11,1,True,False,False,False,False,False,False,False,False,False,33.184473,130.033174
雲仙温泉,長崎県,雲仙市,小浜町雲仙,http://www.unzen.org,4.44,3829,12,11,9,10,4,12,3,True,False,False,True,True,True,True,True,False,False,32.735132,130.260088
山鹿温泉,熊本県,山鹿市,宗方通,http://www.y-kankoukyoukai.com,4.14,1928,12,11,8,4,0,10,0,True,False,False,False,False,True,False,False,False,False,33.0149929,130.6823459
下田温泉,熊本県,天草市,天草町下田北,http://amakusa-shimoda-onsen.jp,4.11,1839,11,11,9,6,0,11,1,True,True,True,False,False,False,False,False,False,False,32.4241691,130.0101946
利尻富士温泉,北海道,利尻富士町,鴛泊,,4.33,761,10,10,4,2,0,10,0,False,True,True,False,False,False,False,False,False,False,45.24479,141.22674
ウトロ温泉,北海道,斜里町,ウトロ東,,4.29,5443,11,10,8,7,3,10,0,True,True,True,False,False,False,False,False,False,False,44.0722822,144.9933683
層雲峡温泉,北海道,上川町,字層雲峡,http://www.sounkyo.net,3.53,6618,10,10,8,8,5,10,0,True,False,True,True,False,False,False,False,False,False,43.7256743,142.9466719
阿寒湖温泉,北海道,釧路市,阿寒町阿寒湖温泉二丁目,http://akanko-spa.jp,4.06,4777,13,10,7,6,2,9,1,True,True,True,False,False,False,False,False,False,False,43.434637,144.0898141
浅虫温泉,青森県,青森市,大字浅虫,http://www.asamushi.com/,4.23,3740,11,10,8,7,1,8,0,True,True,False,False,True,True,False,False,False,False,40.888935,140.862502
田沢湖高原温泉郷,秋田県,仙北市,田沢湖生保内,http://tazawakokougen.jp,4.13,2033,12,10,8,5,0,10,0,False,False,True,True,True,True,False,False,False,False,39.7807213,140.7628296
銀山温泉,山形県,尾花沢市,大字銀山新畑,http://www.ginzanonsen.jp,4.56,1017,10,10,6,4,0,8,0,False,True,True,True,True,True,False,False,False,False,38.5693874,140.5317533
赤湯温泉,山形県,南陽市,赤湯,http://www.akayu-onsen.com,4.26,2968,13,10,9,8,0,9,1,False,True,False,True,False,False,False,False,False,False,38.046782,140.165305
宮ノ下温泉,神奈川県,箱根町,宮ノ下,http://www.miyanoshita.com,4.29,2576,11,10,6,7,3,10,4,True,True,False,False,False,False,False,False,False,False,35.243067,139.057175
大町温泉郷,長野県,大町市,平,http://www.omachionsen.jp,4.21,4218,10,10,10,9,2,10,0,True,False,False,False,False,False,False,False,False,False,36.529053,137.80695
白骨温泉,長野県,松本市,安曇,http://www.shirahone.org,4.48,3887,12,10,9,9,0,9,1,False,True,True,True,False,False,False,False,False,False,36.1463179724121,137.624984741211
下諏訪温泉,長野県,下諏訪町,－,http://shimosuwa.com,4.26,1105,10,10,3,4,0,8,0,True,True,False,False,False,True,False,False,False,False,36.0768385,138.0859736
輪島温泉,石川県,輪島市,マリンタウン,http://www.wajimaonsen.com/index.shtml,4.08,3325,11,10,4,3,2,11,0,False,True,True,False,False,False,False,False,False,False,37.3909267,136.9018129
湯ヶ島温泉,静岡県,伊豆市,湯ケ島,http://www.amagigoe.jp/index.html,3.88,1745,11,10,7,6,1,10,1,True,True,False,False,True,True,False,False,False,False,34.890232,138.924059
舘山寺温泉,静岡県,浜松市西区,舘山寺町,http://www.kanzanji.gr.jp,4.18,6494,11,10,10,8,3,11,1,False,True,False,False,False,False,False,False,False,False,34.771903,137.625466
福地温泉,岐阜県,高山市,奥飛騨温泉郷福地,http://www.fukujionsen.com,4.34,921,10,10,7,10,0,8,1,True,False,True,False,False,False,False,False,False,False,36.224201,137.5301278
雄琴温泉,滋賀県,大津市,雄琴六丁目,,4.34,7269,10,10,8,8,3,10,4,True,True,True,False,False,False,False,False,False,False,35.087545,135.8973464
柴山温泉,兵庫県,香美町,香住区浦上,,4.04,456,11,10,6,2,1,10,3,True,False,False,False,True,False,False,False,False,False,35.647563,134.66288
うずしお温泉,兵庫県,南あわじ市,阿那賀,http://awajiinfo.com/uzusio-onsen/,4.38,1714,10,10,5,2,1,7,0,False,False,True,False,False,False,False,False,False,False,34.2914854,134.6622201
松江宍道湖温泉,島根県,松江市,西茶町,http://www.shinjiko-onsen.jp/,4.32,11885,10,10,6,4,0,10,1,False,True,False,False,True,True,False,False,False,False,35.465727,133.044095
琴平温泉,香川県,琴平町,－,,4.04,7932,10,10,9,5,3,10,2,True,True,True,False,True,True,False,False,False,False,34.1888327734375,133.819869995117
原鶴温泉,福岡県,朝倉市,杷木久喜宮,http://www.harazuru.jp,3.96,3654,17,10,10,9,2,10,0,True,True,True,True,False,False,False,True,False,False,不明,不明
小田温泉,熊本県,南小国町,大字満願寺,http://www.otaonsen.jp,4.50,1585,15,10,7,10,0,9,1,True,True,True,True,True,True,False,False,False,False,33.0682342,131.1290963
日奈久温泉,熊本県,八代市,日奈久中西町,http://www.hinagu.jp,4.14,1106,17,10,5,1,1,10,0,True,True,False,True,False,True,False,False,False,False,32.433097,130.573583
霧島神宮温泉,鹿児島県,霧島市,霧島田口,http://kirishimakankou.com,3.89,1862,14,10,6,6,3,10,2,True,False,True,True,False,True,False,False,False,False,31.8546576635742,130.868133544922
えちごせきかわ温泉郷,新潟県,関川村,大字湯沢,http://www.sekikawa-onsen.com/,4.23,792,16,10,9,4,0,10,1,True,True,False,False,True,True,False,False,False,False,38.0844512121582,139.579742431641
信州高山温泉郷,長野県,高山村,大字奥山田,http://shinshu-takayama-onsenkyo.com/,4.48,964,14,10,6,7,0,9,1,True,True,False,True,False,True,False,False,False,False,36.6703636,138.4246533
新川渓谷温泉郷,鹿児島県,霧島市,牧園町下中津川,,4.43,1403,16,10,7,6,1,10,1,False,True,True,False,False,False,False,False,False,False,31.8109121,130.7578771
稚内温泉,北海道,稚内市,中央二丁目,,4.12,4884,9,9,6,1,3,9,0,False,True,True,False,False,False,False,False,False,False,45.39954,141.683396
十和田湖温泉郷,青森県,十和田市,大字奥瀬,,4.36,2362,11,9,8,5,1,9,2,True,True,True,True,True,False,False,False,False,False,40.579082,140.9957769
東鳴子温泉,宮城県,大崎市,鳴子温泉,http://higasinaruko.michikusa.jp,3.58,1664,12,9,9,7,0,9,0,True,True,True,True,True,True,False,False,False,False,38.7446373,140.735896
土湯温泉,福島県,福島市,土湯温泉町,http://www.tcy.jp,4.35,1749,10,9,7,7,2,9,2,True,False,True,False,False,False,False,False,False,False,37.682888,140.324291
中ノ沢温泉,福島県,猪苗代町,大字蚕養,,3.94,1394,11,9,7,7,1,8,0,False,True,False,True,True,False,True,False,False,False,37.6142129,140.210506
岳温泉,福島県,二本松市,岳温泉一丁目,http://www.dakeonsen.or.jp,4.05,2740,12,9,7,6,2,9,0,True,False,False,False,False,False,True,False,False,False,37.582276,140.336066
芦ノ牧温泉,福島県,会津若松市,大戸町大字芦牧,http://www.aizu-ashinomaki.jp,4.28,5413,10,9,9,9,3,9,1,True,True,False,False,True,True,False,False,False,False,37.3643522,139.917856
中禅寺温泉,栃木県,日光市,中宮祠,http://www.chuzenji.jp,4.14,3472,10,9,6,6,1,9,2,True,False,False,True,False,True,False,False,False,False,36.73843,139.49777
岩室温泉,新潟県,新潟市西蒲区,岩室温泉,http://www.iwamurokankou.com,4.47,2097,11,9,8,8,0,10,3,True,True,True,True,False,True,False,False,False,False,37.7348456518555,138.837631225586
弥彦温泉,新潟県,弥彦村,大字弥彦,http://www.e-yahiko.com,4.24,1940,13,9,7,3,1,9,0,True,True,False,True,False,False,False,False,False,False,37.695415,138.822357
六日町温泉,新潟県,南魚沼市,坂戸,http://www.muikamachi-onsen.jp/,4.13,990,11,9,7,5,0,9,0,True,True,False,False,False,False,False,False,False,False,37.060243,138.882317
宇奈月温泉,富山県,黒部市,宇奈月温泉,http://www.unazuki-onsen.com,4.38,8427,12,9,9,8,4,9,1,True,False,False,False,False,False,False,False,False,False,36.817275,137.582228
湯涌温泉,石川県,金沢市,湯涌荒屋町,http://yuwaku.gr.jp,4.50,1558,9,9,8,8,0,9,3,False,True,False,True,False,True,False,False,False,False,36.489841,136.756615
片山津温泉,石川県,加賀市,潮津町,http://www.katayamazu-spa.or.jp,4.07,5894,9,9,9,9,1,9,0,False,True,False,False,False,False,False,False,False,False,36.346957,136.3648986
下賀茂温泉,静岡県,南伊豆町,下賀茂,,4.16,950,10,9,4,6,0,8,0,True,True,False,False,False,False,False,False,False,False,34.6486052,138.8714158
浜坂温泉,兵庫県,新温泉町,芦屋,http://www.hamasaka.com,4.16,597,10,9,3,1,0,9,1,False,True,False,False,False,False,False,False,False,False,35.6252682,134.4432195
萩温泉,山口県,萩市,大字椿東,,4.30,9656,9,9,9,8,3,9,1,False,True,False,False,False,False,False,False,False,False,34.4162336,131.3870797
たら竹崎温泉,佐賀県,太良町,大字大浦乙,,4.24,938,9,9,6,4,1,9,1,True,True,True,False,False,False,False,False,False,False,32.962945,130.2211523
平山温泉,熊本県,山鹿市,平山,http://www.hirayama-onsen.jp,4.21,1511,15,9,6,9,3,9,1,True,False,False,True,True,True,False,False,False,False,33.0490259,130.6524444
菊池温泉,熊本県,菊池市,隈府,http://www.kikuchikanko.ne.jp,3.63,1126,14,9,7,4,0,9,0,True,False,False,True,True,True,False,False,False,False,32.9836783544922,130.815551757813
植木温泉,熊本県,熊本市北区,植木町米塚,http://www.ueki-onsenkumiai.com,4.76,650,10,9,5,8,0,6,0,True,True,True,True,False,False,False,False,False,False,32.95242,130.726083
亀川温泉,大分県,別府市,大字野田,,4.39,2109,9,9,3,5,1,9,1,True,True,False,False,False,True,False,False,False,False,33.324437,131.495383
わいた温泉郷,熊本県,小国町,大字西里,http://waita.info,4.49,543,10,9,5,8,1,9,1,True,True,False,True,False,True,False,False,False,False,33.1440914,131.1234776
ニセコ温泉郷,北海道,ニセコ町,字ニセコ,https://www.niseko-ta.jp/resorts/hotspring/,4.04,2423,9,9,9,9,2,9,4,False,True,True,True,True,True,False,False,False,False,42.8412391,140.6200385
松島温泉,宮城県,松島町,磯崎,,4.27,7418,9,9,9,7,4,9,2,True,True,True,False,True,False,False,False,False,False,38.372059,141.069774
土湯温泉郷,福島県,福島市,土湯温泉町,,4.35,1749,10,9,7,7,2,9,2,True,False,True,False,False,False,False,False,False,False,37.682888,140.324291
網走湖畔温泉,北海道,網走市,新町一丁目,,3.92,6375,10,8,9,4,5,10,1,True,True,False,False,False,False,False,False,False,False,44.0207296,144.2530778
十勝川温泉,北海道,音更町,十勝川温泉南十三丁目,http://www.tokachigawa.net,4.24,4654,9,8,7,7,6,8,1,True,True,True,False,False,False,False,False,False,False,42.9339284,143.2976899
黒石温泉郷,青森県,黒石市,大字袋,http://kuroishi.or.jp/stay_onsen,4.24,661,12,8,7,2,0,8,0,True,True,False,False,True,True,False,False,False,False,40.6056428,140.6831737
繋温泉,岩手県,盛岡市,繋,http://www.tsunagionsen.com,4.25,4386,8,8,6,6,3,7,0,True,False,False,True,False,False,False,False,False,False,39.6740727,141.016911
台温泉,岩手県,花巻市,台,,4.27,1383,13,8,5,3,0,8,1,True,True,True,True,True,False,False,False,False,False,39.453714,141.05478
鬼首温泉,宮城県,大崎市,鳴子温泉鬼首,http://www.naruko.gr.jp/shukuhaku/spa/03/,―,84,10,8,1,3,0,8,0,True,True,False,False,False,False,False,False,False,False,38.7862757,140.6445302
赤倉温泉,山形県,最上町,大字富澤,http://akakura-spa.com,4.29,312,9,8,7,4,0,8,0,True,False,False,False,True,False,False,False,False,False,38.712108,140.553839
檜枝岐温泉,福島県,檜枝岐村,字下ノ原,http://www.oze-info.jp,4.56,546,9,8,4,2,0,8,0,True,False,False,False,False,False,False,False,False,False,37.017264,139.3849588
水上温泉,群馬県,みなかみ町,湯原,http://www.minakami-onsen.com,4.24,8189,11,8,8,4,2,9,0,True,False,True,False,True,True,False,False,False,False,36.769016,138.970897
養老渓谷温泉,千葉県,大多喜町,粟又,http://www.yorokeikoku.com,4.28,1136,10,8,6,3,1,8,0,True,True,True,False,True,False,False,False,False,False,35.2403960363769,140.169174194336
天津小湊温泉,千葉県,鴨川市,天津,,4.17,5897,8,8,8,7,1,8,0,True,True,True,False,False,False,False,False,False,False,35.123389,140.1838421
白浜温泉,千葉県,南房総市,白浜町白浜,,3.87,7754,8,8,7,2,2,8,1,True,True,True,False,False,False,False,False,False,False,34.905537,139.870395
塔之沢温泉,神奈川県,箱根町,塔之澤,,4.38,1771,8,8,7,6,0,8,4,True,False,False,False,False,False,False,False,False,False,35.2327780859375,139.093353271484
咲花温泉,新潟県,阿賀野市,小松,http://www.sakihana.jp,3.89,2850,8,8,8,7,0,8,0,False,True,False,True,True,False,False,False,False,False,37.7361671,139.2930386
松之山温泉,新潟県,十日町市,松之山湯本,,4.55,683,10,8,6,5,0,7,1,False,True,False,False,False,False,False,False,False,False,37.064431,138.598047
ほたる温泉,長野県,山ノ内町,大字平穏,,3.63,1182,8,8,7,6,0,8,0,True,False,True,True,True,False,False,False,False,False,36.6836368,138.4965264
湯村温泉,兵庫県,新温泉町,湯,,4.46,3991,9,8,6,5,2,8,0,True,True,True,False,True,True,False,True,False,False,35.555383,134.488253
湯の峰温泉,和歌山県,田辺市,本宮町湯峯,http://www.hongu.jp/onsen/yunomine,4.44,451,9,8,5,5,0,8,0,False,True,True,True,False,False,False,True,False,False,33.8283742,135.7571793
鳥取温泉,鳥取県,鳥取市,永楽温泉町,,4.35,5350,8,8,7,1,1,8,0,False,True,True,False,False,True,False,False,False,False,35.492493,134.2312837
はわい温泉,鳥取県,湯梨浜町,大字はわい温泉,http://www.hawai-togo.jp,4.13,1870,8,8,7,5,0,8,0,False,True,False,False,True,True,False,False,False,False,35.476535,133.883596
湯坪温泉,大分県,九重町,大字湯坪,http://www.kokonoe-k.com/spring03/,―,305,17,8,0,7,0,8,0,True,True,False,True,False,False,False,False,False,False,33.132735,131.193264
玉名温泉,熊本県,玉名市,立願寺,http://tamanaonsen.kumanomoto.com,4.09,1836,11,8,7,8,3,7,0,True,False,False,False,False,True,False,False,False,False,32.938863,130.558503
松島温泉,熊本県,上天草市,松島町合津,,4.36,2229,9,8,5,4,0,8,0,True,True,False,False,False,False,False,False,False,False,32.525183,130.424002
妙見温泉,鹿児島県,霧島市,牧園町下中津川,http://www.myoken-onsen.com,4.37,1061,11,8,5,5,1,8,1,False,True,True,False,False,False,False,False,False,False,31.8109121,130.7578771
梅ヶ島温泉郷,静岡県,静岡市葵区,梅ヶ島,http://www.umegashima.net/,4.56,699,11,8,4,2,0,8,0,False,False,False,True,False,False,False,False,False,False,35.300228,138.341246
川場温泉郷,群馬県,川場村,大字川場湯原,,4.29,565,10,8,2,2,0,8,1,True,True,False,False,False,False,False,False,False,False,36.684221,139.114975
川湯温泉,北海道,弟子屈町,川湯温泉一丁目,,3.69,2560,9,7,6,6,2,6,1,False,True,True,True,False,True,True,True,False,False,43.6364918,144.4357419
大鰐温泉,青森県,大鰐町,大字蔵館,http://www.aomoricolony.com/~owanionsen/pege/home.html,4.28,1059,9,7,3,1,0,6,0,True,True,False,False,True,True,False,False,False,False,40.5198187963867,140.572555541992
川渡温泉,宮城県,大崎市,鳴子温泉,http://kawatabi.jp,―,295,9,7,3,2,0,5,0,True,False,True,True,False,True,False,False,False,False,38.729761,140.76601
小安峡温泉,秋田県,湯沢市,皆瀬,http://www.oyasukyo.jp,―,501,9,7,4,5,0,5,0,True,True,False,False,False,True,False,False,False,False,39.006391,140.664152
湯田川温泉,山形県,鶴岡市,湯田川,http://www.yutagawaonsen.com,4.78,881,8,7,5,2,0,7,0,False,False,False,False,True,True,False,False,False,False,38.693623,139.769353
板室温泉,栃木県,那須塩原市,百村,http://www.itamuro.com,3.65,918,8,7,6,4,0,7,0,True,False,False,False,True,False,False,False,False,False,37.0738315,139.9451314
谷川温泉,群馬県,みなかみ町,谷川,,4.68,1883,7,7,5,6,1,7,1,True,False,False,False,False,False,False,False,False,False,36.7917126,138.953634
磯部温泉,群馬県,安中市,磯部一丁目,,4.20,2889,7,7,5,4,1,7,1,False,True,True,False,False,False,False,True,False,False,36.3028159277344,138.846054077148
千倉温泉,千葉県,南房総市,千倉町瀬戸,,4.18,2886,8,7,6,2,0,7,0,True,True,True,True,False,False,False,False,False,False,34.9801351,139.9658731
奥湯河原温泉,神奈川県,湯河原町,宮上,,4.40,1606,7,7,5,6,0,6,4,False,True,False,False,True,True,False,False,False,False,35.1628502,139.0599533
芦安温泉,山梨県,南アルプス市,芦安芦倉,,4.59,500,9,7,2,5,1,7,0,True,False,False,False,True,True,False,False,False,False,35.6332487,138.3617896
奈川渋沢温泉,長野県,松本市,奈川,,3.80,124,9,7,4,2,0,7,0,True,False,True,False,False,False,False,False,False,False,36.0418033,137.7005433
早太郎温泉,長野県,駒ヶ根市,赤穂,http://hayataro.org,4.32,2685,8,7,6,4,2,7,1,True,False,False,False,False,False,False,False,False,False,35.7460672,137.8893463
粟津温泉,石川県,小松市,粟津町,http://www.awazuonsen.com,4.08,8709,8,7,6,5,2,6,0,True,False,False,False,True,False,False,False,False,False,36.333273,136.446312
梅ヶ島温泉,静岡県,静岡市葵区,梅ヶ島,http://www.umegashima.net,4.53,613,9,7,4,1,0,7,0,False,False,False,True,False,False,False,False,False,False,35.3051390783691,138.339950561523
宇佐美温泉,静岡県,伊東市,宇佐美,,4.30,513,7,7,1,2,0,7,0,True,True,False,False,False,True,False,False,False,False,35.0080218,139.0857956
河津七滝温泉,静岡県,河津町,梨本,http://www.nanadaru.com,―,417,9,7,2,7,1,6,0,True,False,False,False,True,False,False,False,False,False,34.794939,138.934204
松崎温泉,静岡県,松崎町,江奈,http://izumatsu-ryokan.jp,3.64,1026,8,7,4,3,0,7,0,False,False,False,False,True,True,False,False,False,False,34.7573468,138.7784017
西浦温泉,愛知県,蒲郡市,西浦町,http://www.nishiuraonsen.com,3.85,4450,7,7,7,7,1,7,1,True,True,False,False,False,False,False,False,False,False,34.766513,137.170163
十津川温泉,奈良県,十津川村,大字平谷,http://totsukawa.info/joho/totsukawa_onsen_gou/2totsukawa_onsen.html,4.25,999,8,7,4,6,1,6,1,False,True,True,True,False,False,False,False,False,False,33.940355,135.7688087
七釜温泉,兵庫県,新温泉町,七釜,http://www.hamasaka.com/html/info_shitikama.html,―,212,8,7,2,1,0,6,1,False,False,False,False,False,True,False,False,False,False,35.6095328466797,134.475997924805
赤穂温泉,兵庫県,赤穂市,さつき町,http://ako-kankou.jp,4.17,4668,7,7,7,7,3,7,1,True,True,False,False,True,False,False,False,False,False,34.73879,134.40287
川湯温泉,和歌山県,田辺市,本宮町川湯,http://www.hongu.jp/onsen/kawayu,4.23,2408,8,7,2,5,0,6,0,True,True,True,False,False,False,False,False,False,False,33.8130331,135.7730306
吉岡温泉,鳥取県,鳥取市,吉岡温泉町,http://yoshiokaonsen.com,―,271,10,7,0,0,0,5,0,True,False,False,False,False,False,False,False,False,False,35.483905,134.129388
美又温泉,島根県,浜田市,金城町追原,,―,738,7,7,2,1,1,6,0,True,False,False,False,False,False,False,False,False,False,34.895142,132.2388773
俵山温泉,山口県,長門市,俵山,http://tawarayamaonsen.com,4.49,538,8,7,1,2,0,8,0,True,False,False,True,False,False,False,False,False,False,34.2907248,131.1000932
奥久慈温泉郷,茨城県,大子町,大字袋田,,3.97,2577,10,7,6,3,0,7,0,True,True,False,False,True,True,False,False,False,False,36.7813211,140.3541558
五頭温泉郷,新潟県,阿賀野市,村杉,http://gozu.jp,4.35,531,12,7,5,4,0,7,0,True,False,False,False,True,True,False,False,False,False,37.8182605,139.3009037
観海寺温泉,大分県,別府市,観海寺,,4.64,11075,7,7,3,6,2,7,2,True,True,False,True,False,True,False,False,False,False,33.2865902,131.4792212
摩周温泉,北海道,弟子屈町,湯の島二丁目,,―,575,7,6,2,1,0,6,0,True,True,True,False,False,False,False,False,False,False,43.4863796,144.4641815
ニセコ昆布温泉,北海道,ニセコ町,字ニセコ,,4.12,2061,6,6,6,6,2,6,2,False,True,True,False,True,False,False,False,False,False,42.8395282,140.622469
支笏湖温泉,北海道,千歳市,支笏湖温泉,http://www.shikotsuko.com,4.39,2079,6,6,3,5,3,6,3,False,True,True,False,True,False,False,False,False,False,42.7734853,141.4022271
長万部温泉,北海道,長万部町,字長万部,http://www.osyamanbe-kankou.jp/onsenkumiai/,3.72,622,7,6,1,1,0,6,0,False,True,False,False,False,False,False,False,False,False,42.5162281,140.3759278
下風呂温泉,青森県,風間浦村,大字下風呂,http://www.shimohuro.com,―,145,10,6,1,1,1,3,0,False,True,False,True,True,False,False,False,False,False,41.466135,141.092764
中山平温泉,宮城県,大崎市,鳴子温泉,http://www.nakayamadaira.com,4.02,571,9,6,5,5,0,6,0,True,True,True,True,True,False,False,False,False,False,38.724225,140.676103
青根温泉,宮城県,川崎町,青根温泉,"http://www.town.kawasaki.miyagi.jp/18,615,66,178.html",4.32,873,7,6,3,3,0,6,1,True,False,False,False,False,False,False,False,False,False,38.145659,140.53433
大湯温泉,秋田県,鹿角市,十和田大湯,http://www.ink.or.jp/~o-yu/,4.22,1716,7,6,6,3,1,6,0,True,True,False,False,False,False,False,False,False,False,40.2954565,140.8305019
男鹿温泉,秋田県,男鹿市,北浦湯本,http://www.e-ogaonsen.com,4.12,2160,6,6,5,4,1,6,0,False,True,False,False,False,False,False,False,False,False,39.973363,139.741562
あつみ温泉,山形県,鶴岡市,湯温海,http://www.atsumi-spa.or.jp,4.26,3181,8,6,4,2,1,6,0,False,True,False,False,True,False,False,False,False,False,38.6142525,139.6034408
川治温泉,栃木県,日光市,川治温泉川治,,4.08,3750,7,6,5,4,2,6,0,True,False,False,False,False,False,False,False,False,False,36.8931835,139.7071144
平潟港温泉,茨城県,北茨城市,平潟町,,3.74,664,13,6,4,1,0,6,0,False,True,False,True,False,False,False,False,False,False,36.849536,140.794036
湯檜曽温泉,群馬県,みなかみ町,湯桧曽,,―,988,7,6,6,3,0,6,0,True,False,False,False,False,False,False,False,False,False,不明,不明
鹿沢温泉,群馬県,嬬恋村,大字田代,http://www.kazawaonsen.com,3.88,282,7,6,4,3,0,6,0,True,False,True,False,False,False,False,False,False,False,36.470359,138.432509
七沢温泉,神奈川県,厚木市,七沢,,4.32,1145,9,6,6,6,0,8,0,True,False,False,False,False,False,False,False,False,False,35.45609,139.28967
湯村温泉,山梨県,甲府市,湯村三丁目,http://www.yumura.com,4.22,4346,7,6,6,4,1,6,1,True,True,False,False,True,True,False,False,False,False,35.6831349,138.5476447
鵜の浜温泉,新潟県,上越市,大潟区雁子浜,http://www.o-kankou.com/tomaru/,3.98,773,7,6,5,3,0,5,0,False,True,False,False,False,False,False,True,False,False,37.2402565,138.3385963
上の原高原温泉,新潟県,南魚沼市,小栗山,,4.10,828,10,6,4,1,0,6,0,True,True,False,False,False,False,False,False,False,False,37.06828,138.850123
関温泉,新潟県,妙高市,大字関山,,3.90,253,11,6,3,3,0,6,1,False,True,True,False,False,False,False,True,False,False,36.905232,138.161955
発哺温泉,長野県,山ノ内町,大字平穏,,3.90,276,6,6,6,3,1,6,0,False,False,False,True,False,False,False,False,False,False,36.72455,138.50833
志賀の郷温泉,石川県,志賀町,大津,,4.29,935,6,6,2,2,1,6,0,True,True,True,False,False,True,False,False,False,False,37.0199163,136.7671301
寸又峡温泉,静岡県,川根本町,千頭,http://www.okuooi.gr.jp/wordpress/onsen/o_sumatakyo/,4.05,451,9,6,3,1,0,5,0,False,False,False,True,False,True,False,False,False,False,35.175834,138.118053
伊豆山温泉,静岡県,熱海市,伊豆山,http://www.izusan.com,4.10,2533,8,6,5,4,2,6,1,True,True,False,False,True,False,False,False,False,False,35.111269,139.08586
湯谷温泉,愛知県,新城市,能登瀬,http://www.yuya-spa.com,4.32,1390,6,6,4,4,0,6,0,False,True,False,False,False,False,False,False,False,False,34.972184,137.614448
三谷温泉,愛知県,蒲郡市,三谷町,http://www.miyaspa.com,4.00,4714,6,6,5,6,4,6,0,True,True,False,False,False,False,False,False,False,False,34.805983,137.261218
栃尾温泉,岐阜県,高山市,奥飛騨温泉郷栃尾,http://www.okuhida.or.jp/archives/category/lodging/tochio,4.41,924,9,6,5,5,0,6,0,True,True,True,True,False,False,False,False,False,False,36.247739,137.519349
長良川温泉,岐阜県,岐阜市,長良,http://nagaragawa.org,4.46,4223,6,6,6,5,1,6,0,True,False,True,False,False,False,False,True,False,False,35.4346935,136.7733184
洞川温泉,奈良県,天川村,大字洞川,http://www.dorogawaonsen.jp,4.49,1608,12,6,8,5,0,11,0,True,False,False,False,False,False,False,False,False,False,34.2686431,135.8798666
湯の花温泉,京都府,亀岡市,本梅町平松,http://www.yunohana-onsen.com/index.html,4.18,1882,6,6,6,5,2,6,2,True,False,False,False,True,True,False,False,False,False,35.020028,135.5116869
嵐山温泉,京都府,京都市右京区,嵯峨天龍寺芒ノ馬場町,,4.55,3956,7,6,5,4,0,7,2,True,False,False,False,False,False,False,False,False,False,35.013664,135.675162
ハチ北温泉,兵庫県,香美町,村岡区大笹,,―,174,7,6,4,1,0,6,0,True,False,False,False,True,True,False,False,False,False,35.4045691625977,134.55876159668
湯の川温泉,島根県,出雲市,斐川町学頭,http://www.yunokawaonsen.jp,4.36,1371,6,6,4,4,1,6,1,False,True,False,False,True,True,False,False,False,False,35.393443,132.872175
宮浜温泉,広島県,廿日市市,宮浜温泉二丁目,,4.27,1100,6,6,4,2,1,6,2,True,False,False,False,True,True,False,False,False,False,34.27307,132.252714
明礬温泉,大分県,別府市,明礬,,4.66,853,9,6,3,3,1,5,0,True,False,True,True,False,True,True,False,False,False,33.3176986,131.453476
長者原温泉,大分県,九重町,大字田野,http://www.kokonoe-k.com/spring02/,4.08,538,8,6,5,5,0,7,0,True,True,True,True,False,True,True,False,False,False,33.117317,131.2277281
湯の児温泉,熊本県,水俣市,大迫,http://www.city.minamata.lg.jp/376.html,―,312,6,6,3,5,1,6,0,True,True,True,False,False,False,False,False,False,False,32.233039,130.411409
京町温泉,宮崎県,えびの市,大字向江,http://www.kyomachionsen.com,4.30,680,8,6,6,3,0,6,0,True,True,True,False,False,True,False,False,False,False,32.0468243,130.7666195
日当山温泉,鹿児島県,霧島市,隼人町姫城一丁目,http://hinatayama.net,4.06,820,7,6,5,3,1,6,2,True,True,True,False,False,False,False,False,False,False,31.770064,130.757713
旭岳温泉,北海道,東川町,勇駒別,http://www.welcome-higashikawa.jp/info/?c=10,―,2118,7,5,3,3,2,4,0,False,True,True,False,True,True,False,False,False,False,43.649284,142.7947009
白金温泉,北海道,美瑛町,字白金,http://www.biei-shiroganeonsen.com,3.76,1672,6,5,4,5,4,5,0,False,True,False,False,True,False,False,False,False,False,43.4732376,142.6440004
ぬかびら源泉郷,北海道,上士幌町,字ぬかびら源泉郷,https://nukabilife.wixsite.com/nukabilife/blank-9,4.35,644,7,5,5,2,1,6,0,False,True,True,False,False,False,False,False,False,False,43.3657429,143.1910232
朝里川温泉,北海道,小樽市,朝里川温泉二丁目,http://www.otaru-asari.co.jp,4.24,1692,5,5,3,5,3,5,2,True,True,False,False,True,True,False,False,False,False,43.146853,141.0396571
北湯沢温泉,北海道,伊達市,大滝区北湯沢温泉町,,―,3275,6,5,4,3,3,5,0,True,True,False,False,False,False,False,False,False,False,42.6225142614746,141.022979736328
虎杖浜温泉,北海道,白老町,字虎杖浜,http://www.shiraoi.net/n-html/page-onsen.html,―,1255,15,5,5,4,4,5,1,True,True,True,False,False,False,False,False,False,False,42.465436472168,141.217056274414
百沢温泉,青森県,弘前市,大字百沢,http://www.iwakisan.com/hot_spring/hyakuzawa.html,―,68,6,5,3,1,1,4,0,False,True,True,False,False,False,False,True,False,False,40.619542,140.342523
十和田湖畔温泉,青森県,十和田市,大字奥瀬,,4.03,2834,6,5,6,2,1,6,0,True,True,True,False,True,False,False,False,False,False,40.425436,140.8933
花巻温泉,岩手県,花巻市,湯本,,4.33,5604,5,5,5,3,4,5,1,True,True,True,False,False,True,False,False,False,False,39.4552627,141.0670064
瀬見温泉,山形県,最上町,大字大堀,http://semi-onsen.com,4.40,1086,7,5,4,1,0,5,0,True,True,False,False,True,True,False,False,False,False,38.754477,140.412239
白布温泉,山形県,米沢市,大字関,http://www.shirabu.jp,4.56,637,5,5,5,3,0,5,1,False,False,False,True,True,True,False,False,False,False,37.7801979,140.1197355
穴原温泉,福島県,福島市,飯坂町湯野,,―,1602,6,5,5,3,2,5,0,True,False,False,False,False,False,False,False,False,False,37.8425805,140.4372594
裏磐梯早稲沢温泉,福島県,北塩原村,大字桧原,,―,62,9,5,2,2,0,5,0,True,False,False,False,True,True,False,False,False,False,37.726119,140.067335
万座温泉,群馬県,嬬恋村,大字干俣,http://www.manzaonsen.gr.jp/index.php,4.15,5000,7,5,5,5,0,4,0,False,True,False,True,True,True,True,False,False,False,36.6354135,138.5079923
犬吠埼温泉,千葉県,銚子市,犬吠埼,,4.27,2897,8,5,6,4,1,8,1,False,True,True,False,False,False,False,False,False,False,35.7048133,140.8627617
宮城野温泉,神奈川県,箱根町,宮城野,,―,443,5,5,3,0,0,5,1,True,True,True,False,False,True,False,False,False,False,35.2532819,139.0564863
小涌谷温泉,神奈川県,箱根町,小涌谷,,4.35,2739,5,5,4,4,3,5,2,True,True,False,False,False,False,False,False,False,False,35.2399761,139.0479185
大湯温泉,新潟県,魚沼市,大湯温泉,http://www.yunotani.or.jp/onsenkyo/ooyu.html,3.95,1092,8,5,3,3,1,5,0,True,False,False,False,False,False,False,False,False,False,不明,不明
山田温泉,長野県,高山村,大字奥山田,http://shinshu-takayama-onsenkyo.com/hot_spring_facility/#yamada,―,687,6,5,3,3,0,4,1,False,True,False,False,False,False,False,False,False,False,36.6703636,138.4246533
河津浜温泉,静岡県,河津町,浜,,―,410,6,5,3,3,0,5,1,True,True,False,False,True,False,False,False,False,False,34.7481419,138.997413
蓮台寺温泉,静岡県,下田市,蓮台寺,,―,534,5,5,4,4,0,5,0,True,False,False,False,False,False,False,False,False,False,34.6957221166992,138.932754516602
濁河温泉,岐阜県,下呂市,小坂町落合,,―,190,5,5,5,4,0,5,0,False,True,True,False,True,True,False,False,False,False,35.9234445,137.4491278
答志島温泉,三重県,鳥羽市,答志町,http://www.ymd7.com/trk.htm,4.27,587,6,5,4,4,0,6,0,True,True,True,False,False,False,False,False,False,False,34.531996,136.901108
加太淡嶋温泉,和歌山県,和歌山市,加太,http://www.kada.jp/onsen/,―,2217,7,5,4,3,1,6,1,True,True,True,False,False,False,False,False,False,False,34.2751254,135.0686961
椿温泉,和歌山県,白浜町,椿,http://www.tubakionsen.com,―,203,5,5,2,1,0,4,0,True,False,False,True,False,False,False,False,False,False,33.6022857,135.3877976
奥津温泉,岡山県,鏡野町,奥津,http://www.okayama-kanko.jp/spot/okutsu.html,―,815,7,5,3,1,0,5,1,True,False,False,False,False,True,False,False,False,False,35.2219398,133.9209626
川棚温泉,山口県,下関市,豊浦町大字川棚,http://www.kawatana.com,4.36,1436,8,5,4,3,1,5,2,True,True,False,False,True,True,False,False,False,False,34.138694,130.939004
塩江温泉郷,香川県,高松市,塩江町上西乙,,―,1200,6,5,4,2,4,5,0,False,False,False,True,False,False,False,False,False,False,34.1549239294434,134.074554443359
鈍川温泉,愛媛県,今治市,玉川町鈍川,http://www.nibukawa.net,4.12,835,5,5,4,1,0,5,0,True,True,True,False,False,False,False,False,False,False,33.980946,132.933032
足摺温泉,高知県,土佐清水市,足摺岬,http://www.ashizuri-onsen.com/,3.84,1464,6,5,5,3,1,5,0,True,False,False,False,True,True,False,False,False,False,32.7259779,133.0107906
筑後川温泉,福岡県,うきは市,浮羽町古川,http://www.fukuoka-onsen.com/chikugogawa.html,―,1054,5,5,4,2,0,5,0,True,False,False,True,True,True,False,False,False,False,33.3586011,130.8061852
壱岐湯ノ本温泉,長崎県,壱岐市,勝本町立石西触,,4.52,396,7,5,5,3,1,5,2,False,True,False,False,False,False,False,True,False,False,33.80559,129.686883
青島温泉,宮崎県,宮崎市,青島一丁目,,4.30,3100,6,5,5,4,5,6,0,False,True,True,True,False,False,False,False,False,False,31.804476,131.461396
馬頭温泉郷,栃木県,那珂川町,小口,http://bato-onsenkyo.com,4.04,786,9,5,2,4,0,5,0,True,True,True,False,True,False,False,False,False,False,36.767198,140.143643
片瀬温泉,静岡県,東伊豆町,片瀬,,―,941,5,5,2,3,0,3,0,False,True,False,False,False,False,False,False,False,False,34.808586,139.066972
小土肥温泉,静岡県,伊豆市,小土肥,,―,844,5,5,3,2,0,5,1,False,True,False,False,False,True,False,False,False,False,34.921872,138.785662
志賀山温泉,長野県,山ノ内町,大字平穏,,―,186,5,5,5,3,2,5,0,False,False,False,True,False,False,False,False,False,False,36.7212233679199,138.496963500977
尾岱沼温泉,北海道,別海町,尾岱沼港町,,―,273,5,4,2,1,0,4,0,False,True,False,False,False,False,False,False,False,False,43.5672878,145.2211824
中標津温泉,北海道,中標津町,東二十条北一丁目,,―,141,5,4,4,3,2,4,0,True,True,False,False,False,False,False,False,False,False,43.566734,144.981129
カルルス温泉,北海道,登別市,カルルス町,http://www.noboribetsu-spa.jp/?lang=ja,―,514,4,4,2,2,0,3,0,True,False,False,False,False,True,False,False,False,False,42.5194542,141.1073115
金田一温泉,岩手県,二戸市,金田一,,―,529,6,4,4,1,0,4,0,True,False,False,False,False,False,False,False,False,False,40.3213717,141.3172186
玄武温泉,岩手県,雫石町,長山,http://www.shizukuishi-kanko.gr.jp/hotspring04.php,―,589,5,4,2,3,0,5,0,False,True,True,False,False,False,False,False,False,False,39.7895429,140.9459302
作並温泉,宮城県,仙台市青葉区,作並,http://www.sakunami-spa.com,―,4767,4,4,4,4,1,4,1,True,True,False,False,True,False,False,False,False,False,38.3281764,140.6173571
水沢温泉,秋田県,仙北市,田沢湖生保内,http://mizusawa-onsenkyo.jp,―,537,4,4,3,4,0,4,1,False,True,False,True,False,True,True,False,False,False,39.7649843,140.7509769
月山志津温泉,山形県,西川町,大字志津,http://www.gassan-shizuonsen.net,―,215,8,4,2,1,0,5,0,False,True,False,False,False,True,False,False,False,False,38.4909737,139.9999934
新甲子温泉,福島県,西郷村,大字真船,http://nishigo-kankou.jp/onsen/index.php,―,328,7,4,2,2,0,4,0,True,False,False,False,True,False,False,False,False,False,37.1766701,140.0247642
大丸温泉,栃木県,那須町,大字湯本,http://www.nasuonsen.com,―,1142,5,4,3,4,0,4,0,True,False,False,False,True,False,False,False,False,False,37.1218,139.98453
上塩原温泉,栃木県,那須塩原市,上塩原,,―,897,5,4,3,4,0,4,0,True,True,True,False,False,False,False,False,False,False,36.986293,139.7752208
新湯温泉,栃木県,那須塩原市,湯本塩原,,―,2043,4,4,4,3,0,4,0,False,False,False,True,False,False,True,False,False,False,36.9569293,139.7790456
川俣温泉,栃木県,日光市,川俣,,―,388,4,4,2,2,0,4,0,False,True,True,False,False,False,False,False,False,False,36.882079,139.456112
袋田温泉,茨城県,大子町,大字袋田,,―,1784,4,4,3,2,0,4,0,True,False,False,False,False,False,False,False,False,False,36.765443,140.402489
筑波山温泉,茨城県,つくば市,筑波,,―,745,4,4,4,4,1,4,0,True,False,False,False,False,False,False,False,False,False,36.2098902,140.1058995
上牧温泉,群馬県,みなかみ町,上牧,,―,1771,4,4,3,2,0,3,0,False,True,False,False,True,True,False,False,False,False,36.7387643,138.9817665
尻焼温泉,群馬県,中之条町,大字入山,http://www.nakanojo-kanko.jp/onsen/shiriyaki.shtml,―,320,4,4,3,3,0,4,0,False,True,False,False,True,False,False,False,False,False,36.6521011,138.6398441
沢渡温泉,群馬県,中之条町,大字上沢渡,http://www.sawatari-onsen.sakura.ne.jp,―,407,7,4,3,2,0,4,0,True,True,False,False,True,True,False,False,False,False,36.6234311,138.7641493
大島温泉,東京都,大島町,元町三丁目,,―,531,4,4,4,3,0,4,0,False,True,False,False,False,False,False,False,False,False,34.7520571,139.3583371
高瀬温泉,新潟県,関川村,大字湯沢,http://www.sekikawa-onsen.com/takase/,―,299,7,4,4,2,0,4,0,False,True,False,False,True,True,False,False,False,False,38.0844512121582,139.579742431641
雲母温泉,新潟県,関川村,大字湯沢,http://www.sekikawa-onsen.com/kira/,―,240,4,4,3,0,0,4,0,True,True,False,False,True,True,False,False,False,False,38.0843079,139.5756948
村杉温泉,新潟県,阿賀野市,村杉,http://gozu.jp,―,372,7,4,3,2,0,4,0,True,False,False,False,True,True,False,False,False,False,37.7997603552246,139.291168212891
湯田上温泉,新潟県,田上町,大字田上,,―,1420,4,4,4,4,1,4,0,True,True,False,False,True,False,False,False,False,False,37.710021,139.0777132
折立温泉,新潟県,魚沼市,下折立,http://www.yunotani.or.jp/onsenkyo/oritate.html,―,168,4,4,4,2,0,4,0,True,False,False,False,False,False,False,False,False,False,37.2069649,139.0637791
夜間瀬温泉,長野県,山ノ内町,大字夜間瀬,,―,447,5,4,3,1,0,4,0,True,False,False,False,False,False,False,False,False,False,36.780364,138.4162532
穂波温泉,長野県,山ノ内町,大字佐野,http://www.avis.ne.jp/~honami/,―,871,6,4,1,3,1,3,0,True,True,False,False,False,False,False,False,False,False,36.73646,138.416458
角間温泉,長野県,山ノ内町,大字佐野,http://www.kakumaonsen.jp,―,399,5,4,2,0,0,4,0,True,True,False,False,True,False,False,False,False,False,36.7270564,138.428712
霊泉寺温泉,長野県,上田市,平井,http://reisenjionsen.com,―,352,5,4,3,1,0,4,0,True,False,False,False,True,False,False,False,False,False,36.2952897,138.1733349
沢渡温泉,長野県,松本市,安曇,,―,908,5,4,2,4,0,4,0,True,False,False,False,False,False,False,False,False,False,36.165604,137.653198
庄川温泉郷,富山県,砺波市,庄川町金屋,,―,986,7,4,4,4,1,4,1,True,True,True,False,False,False,False,True,False,False,36.5595178,137.0065278
戸田温泉,静岡県,沼津市,戸田,http://www.heda-kanko.com,―,977,4,4,3,3,0,4,0,True,False,False,False,True,True,False,False,False,False,34.969532,138.777193
北川温泉,静岡県,東伊豆町,奈良本,http://www.hokkawa-onsen.com,―,1420,4,4,4,4,1,4,0,False,True,False,False,False,False,False,False,False,False,34.8315284,139.0743148
みはま温泉,愛知県,美浜町,大字奥田,,―,353,5,4,4,1,0,5,0,False,True,True,False,False,False,False,False,False,False,34.769439,136.845437
平瀬温泉,岐阜県,白川村,大字平瀬,http://hiraseonsen.jp,―,126,9,4,0,1,0,2,0,False,True,False,True,False,False,False,False,False,False,36.175736,136.902551
長島温泉,三重県,桑名市,長島町浦安,,―,1655,4,4,4,3,3,4,1,True,False,False,False,False,False,False,False,False,False,35.027849,136.7327489
榊原温泉,三重県,津市,榊原町,http://www.sakakibaraonsen.gr.jp,―,1604,6,4,4,2,1,4,1,True,False,False,False,False,False,False,False,False,False,34.7036731,136.3750264
鷺の湯温泉,島根県,安来市,古川町,,―,1260,4,4,3,3,1,4,1,False,True,False,False,True,True,False,False,False,False,35.380502,133.195593
温泉津温泉,島根県,大田市,温泉津町温泉津,http://yunotsu-onsen.com/,―,1162,5,4,3,1,0,4,0,False,True,False,False,False,False,False,False,False,False,35.096831,132.349575
二日市温泉,福岡県,筑紫野市,湯町一丁目,,―,1358,4,4,3,0,0,4,0,True,False,False,False,False,False,False,False,False,False,33.489851,130.5134
平戸温泉,長崎県,平戸市,大久保町,,―,1739,5,4,4,3,1,4,0,False,True,True,False,False,False,False,False,False,False,33.362845,129.558302
島原温泉,長崎県,島原市,霊南一丁目,http://www.shimabaraonsen.com,―,2877,6,4,4,3,3,4,0,False,True,True,False,False,False,False,True,False,False,32.770322,130.360298
はげの湯温泉,熊本県,小国町,大字西里,,―,357,4,4,2,3,1,4,0,False,True,False,True,False,False,False,False,False,False,33.1531546,131.1401416
湯山温泉,熊本県,水上村,大字湯山,,―,101,4,4,1,1,0,4,0,True,False,False,True,False,False,False,False,False,False,32.3218049,131.0444007
柴尾温泉,鹿児島県,さつま町,紫尾,http://shibionsen.web.fc2.com,―,348,4,4,3,3,0,4,1,True,False,False,True,False,False,False,False,False,False,31.9747086,130.4303881
乳頭温泉郷,秋田県,仙北市,田沢湖生保内,http://www.nyuto-onsenkyo.com,―,414,5,4,3,4,0,3,0,True,False,True,True,False,True,False,False,False,False,39.802409,140.805814
掘田温泉,大分県,別府市,堀田,,―,1969,4,4,3,3,1,4,2,True,True,True,True,False,False,False,False,False,False,33.291064,131.456389
甲府温泉,山梨県,甲府市,中央一丁目,,―,6428,4,4,3,3,1,4,0,False,True,True,True,False,False,False,False,False,False,35.6613223,138.5670946
浜島温泉,三重県,志摩市,浜島町浜島,,―,2986,4,4,4,4,1,4,1,True,True,False,False,False,False,False,False,False,False,34.297899,136.745381
豊富温泉,北海道,豊富町,字豊富温泉,http://toyotomi-kanko.net/main/,―,223,3,3,3,1,1,3,0,False,True,True,False,False,False,False,False,False,False,45.0739788,141.8392658
羅臼温泉,北海道,羅臼町,湯ノ沢町,,―,422,6,3,2,2,0,2,0,False,True,False,True,False,False,False,False,False,False,44.0174801,145.1915024
温根湯温泉,北海道,北見市,留辺蘂町温根湯温泉,http://www.onneyuonsen.jp/index.html,―,995,3,3,3,2,1,3,0,True,False,False,True,False,False,False,False,False,False,43.7597009,143.5068215
十勝岳温泉,北海道,上富良野町,－,,―,350,3,3,2,2,2,3,0,False,False,False,False,True,True,True,True,False,False,43.413573,142.642887
嶽温泉,青森県,弘前市,大字常盤野,http://www.dake-onsen.com,―,249,8,3,0,1,0,3,0,False,True,False,True,True,True,True,False,False,False,不明,不明
松川温泉,岩手県,八幡平市,松尾寄木,,―,96,3,3,3,3,0,2,0,False,False,False,True,False,False,True,False,False,False,39.8715248,140.9260955
大沢温泉,岩手県,花巻市,湯口,http://www.oosawaonsen.com,―,1543,3,3,3,3,0,3,0,True,False,False,False,False,False,False,False,False,False,39.4365393,141.0159616
湯本温泉,岩手県,西和賀町,湯本,http://www.yamanoideyu.com/stay/index.html,―,128,4,3,3,1,0,3,0,False,True,False,False,True,True,False,False,False,False,39.3443446,140.7720341
夏油温泉,岩手県,北上市,和賀町岩崎新田,,―,164,3,3,3,3,0,3,0,False,True,False,False,True,False,False,False,False,False,39.2126101,140.8883249
鎌先温泉,宮城県,白石市,福岡蔵本,http://www.shiroishi.ne.jp/stay/accommodations.html,―,1648,3,3,3,2,0,3,1,False,True,False,False,False,True,False,False,False,False,38.0249636,140.5760162
由良温泉,山形県,鶴岡市,由良三丁目,http://www.tsuruokakanko.com/tsuruoka/spa/yura.html,―,770,3,3,2,1,1,3,0,False,True,False,False,True,True,False,False,False,False,38.724588,139.692164
黒沢温泉,山形県,山形市,大字黒沢,,―,979,4,3,3,2,1,3,0,False,False,False,False,True,True,False,False,False,False,38.192181,140.302071
熱塩温泉,福島県,喜多方市,熱塩加納町熱塩,http://atsushio-spa.com/top/,―,470,3,3,2,1,1,3,0,True,False,False,False,False,False,False,False,False,False,37.728651,139.8874615
柳津温泉,福島県,柳津町,大字柳津,,―,626,5,3,3,2,0,3,0,False,True,False,False,False,False,False,False,False,False,37.532149,139.724864
二岐温泉,福島県,天栄村,大字湯本,,―,169,5,3,3,3,0,3,0,True,False,False,False,True,True,False,False,False,False,37.2422385351562,139.98893737793
奥久慈温泉郷・大子温泉,茨城県,大子町,大字池田,,―,793,6,3,3,1,0,3,0,False,True,False,False,True,True,False,False,False,False,36.7813211,140.3541558
鎌田温泉,群馬県,片品村,大字鎌田,,―,113,3,3,1,2,0,3,0,True,False,False,False,False,False,False,False,False,False,36.7770722,139.2315423
花咲温泉,群馬県,片品村,大字花咲,,―,34,4,3,3,0,0,3,0,True,False,False,False,False,False,False,False,False,False,36.754261,139.206179
湯宿温泉,群馬県,みなかみ町,湯宿温泉,,―,235,4,3,2,1,0,3,0,True,False,False,False,True,False,False,False,False,False,36.700433,138.91316
赤城温泉,群馬県,前橋市,－,http://www.akg5.jp,―,343,4,3,2,3,0,3,0,False,False,True,False,False,False,False,False,False,False,36.507156,139.179763
奥多摩温泉,東京都,奥多摩町,氷川,,―,29,4,3,1,0,0,2,0,False,False,False,True,False,False,False,False,False,False,35.808089,139.095441
中川温泉,神奈川県,山北町,中川,http://www.town.yamakita.kanagawa.jp/contents_detail.php?frmId=245,―,750,4,3,3,3,1,3,0,True,False,False,False,False,False,False,False,False,False,35.442642,139.051463
芦之湯温泉,神奈川県,箱根町,芦之湯,,―,754,4,3,2,2,0,3,1,False,False,True,True,False,True,False,False,False,False,35.2214556,139.0420518
蛸川温泉,神奈川県,箱根町,元箱根,,―,1688,3,3,2,3,0,2,1,False,True,False,False,False,True,False,False,False,False,35.2137429,139.0081122
塩山温泉,山梨県,甲州市,塩山上於曽,http://www.enzan.net/yado/onsen/ryokan.htm,―,123,4,3,2,1,0,3,0,True,False,False,True,False,False,False,False,False,False,不明,不明
三川温泉,新潟県,阿賀町,五十沢,,―,24,5,3,1,0,0,3,0,False,True,False,False,True,True,False,False,False,False,37.7294657,139.3870747
蓬平温泉,新潟県,長岡市,蓬平町,http://yomogihira-spa.jp,―,380,3,3,3,3,1,3,1,False,False,True,True,False,False,False,False,False,False,37.364199,138.890412
銀山平温泉,新潟県,魚沼市,下折立,http://www.yunotani.or.jp/onsenkyo/ginzandaira.html,―,9,3,3,2,3,0,3,0,True,False,False,False,False,False,False,False,False,False,不明,不明
燕温泉,新潟県,妙高市,大字関山,,―,215,3,3,2,2,0,3,0,True,True,True,True,True,False,False,False,False,False,36.9022393,138.1461186
安代温泉,長野県,山ノ内町,大字平穏,,―,726,3,3,2,1,0,3,0,True,True,False,False,True,False,False,False,False,False,36.7352087,138.4283765
上林温泉,長野県,山ノ内町,大字平穏,http://www.kanbayashi-onsen.com,―,521,4,3,2,3,0,3,1,True,True,False,False,True,True,False,False,False,False,36.7303553,138.4439385
木崎湖温泉,長野県,大町市,平,,―,―,5,3,0,0,0,2,0,True,False,False,False,False,False,False,False,False,False,36.545091,137.839006
葛温泉,長野県,大町市,平,,―,57,3,3,2,3,0,1,0,True,False,False,False,False,False,False,False,False,False,36.49377,137.750611
春日温泉,長野県,佐久市,春日,,―,142,4,3,1,2,1,3,0,True,False,False,False,False,False,False,False,False,False,36.1978292,138.3366264
天竜峡温泉,長野県,飯田市,川路,http://www.tenryukyou.com,―,261,3,3,2,0,0,3,2,True,False,False,False,False,False,False,False,False,False,35.4403321,137.8199448
辰口温泉,石川県,能美市,辰口町,,―,1036,3,3,3,3,2,3,2,False,True,False,False,False,True,False,False,False,False,36.4445946,136.5449963
白山一里野温泉,石川県,白山市,尾添,http://ichirino.gr.jp,―,209,9,3,1,2,1,5,0,False,True,True,False,False,False,False,False,False,False,36.2689405,136.7158334
白峰温泉,石川県,白山市,白峰,,―,266,4,3,1,0,0,3,0,False,False,True,False,False,False,False,False,False,False,36.173487,136.628322
大仁温泉,静岡県,伊豆の国市,吉田,,―,1113,4,3,1,2,0,3,0,True,True,False,False,False,True,False,False,False,False,34.992419,138.940607
赤沢温泉,静岡県,伊東市,赤沢,,―,1441,4,3,3,3,3,4,1,True,True,False,False,True,True,False,False,False,False,34.8616596,139.0959113
倉真温泉,静岡県,掛川市,倉真,,―,235,3,3,2,0,0,3,0,False,False,False,True,False,False,False,False,False,False,34.8346976,138.0428738
湯ヶ野温泉,静岡県,河津町,湯ケ野,https://www.kawazu-onsen.com/yado/yuganospa.html,―,130,4,3,1,2,0,2,0,False,False,False,False,True,True,False,False,False,False,不明,不明
峰温泉,静岡県,河津町,峰,,―,475,5,3,2,3,0,3,1,True,True,False,False,False,False,False,False,False,False,34.757831,138.982988
岩地温泉,静岡県,松崎町,岩地,,―,26,3,3,0,0,0,2,0,False,True,False,False,False,False,False,False,False,False,34.732195,138.756286
湯屋温泉,岐阜県,下呂市,小坂町湯屋,,―,473,3,3,2,2,0,3,0,True,True,True,False,False,False,False,False,False,False,35.910284,137.313087
柿野温泉,岐阜県,土岐市,鶴里町柿野,,―,362,4,3,3,1,0,3,0,True,False,False,False,True,True,False,False,False,False,35.274418,137.223882
湯泉地温泉,奈良県,十津川村,大字小原,http://totsukawa.info/joho/totsukawa_onsen_gou/,―,121,3,3,1,1,1,3,1,False,False,False,True,False,False,False,False,False,False,33.9975784,135.8086703
木津温泉,京都府,京丹後市,網野町木津,,―,248,3,3,1,2,0,3,0,True,False,False,False,False,False,False,False,False,False,35.650898,134.974296
串本温泉,和歌山県,串本町,サンゴ台,,―,2864,4,3,2,2,1,3,0,False,True,False,True,False,False,False,False,False,False,33.474965,135.782048
東郷温泉,鳥取県,湯梨浜町,大字引地,http://www.hawai-togo.jp,―,1149,3,3,3,2,1,3,0,False,True,True,False,True,False,False,False,False,False,35.469775,133.89917
鞆の浦温泉,広島県,福山市,鞆町鞆,,―,1623,5,3,3,3,0,4,1,True,False,False,False,True,True,False,False,False,False,34.383847,133.3898268
一の俣温泉,山口県,下関市,豊田町大字一ノ俣,,―,790,4,3,3,2,1,3,0,False,False,False,True,False,False,False,False,False,False,34.259077,131.057865
湯野温泉,山口県,周南市,大字湯野,,―,526,4,3,3,1,0,3,0,True,False,False,True,True,True,False,False,False,False,34.092633,131.673834
柳川温泉,福岡県,柳川市,三橋町下百町,,―,656,3,3,3,2,2,3,0,False,True,True,False,False,False,False,False,False,False,33.1567773,130.3998961
深耶馬渓温泉,大分県,中津市,耶馬溪町大字深耶馬,,―,153,4,3,1,1,0,3,0,True,False,False,False,False,False,False,False,False,False,33.3716635,131.1653096
湯の鶴温泉,熊本県,水俣市,湯出,http://www.city.minamata.lg.jp/377.html,―,75,5,3,3,2,0,3,0,True,False,False,True,False,False,False,False,False,False,32.150091,130.440802
吹上温泉,鹿児島県,日置市,吹上町湯之浦,,―,158,5,3,3,1,1,3,0,False,False,False,True,False,False,False,False,False,False,31.502305,130.368941
渡瀬温泉,和歌山県,田辺市,本宮町渡瀬,http://www.hongu.jp/onsen/wataze/,―,698,3,3,1,3,0,3,1,True,True,True,False,False,False,False,False,False,False,33.8177869,135.766088
壮瞥温泉,北海道,壮瞥町,字壮瞥温泉,,―,94,3,3,2,0,0,3,0,False,True,False,False,True,True,False,False,False,False,42.556682,140.8627242
福渡温泉,栃木県,那須塩原市,塩原,http://www.siobara.or.jp/,―,428,4,3,1,2,1,3,1,False,True,False,False,False,True,False,False,False,False,36.964806,139.837423
酸ヶ湯温泉,青森県,青森市,大字荒川,,―,1381,3,3,2,1,2,3,1,True,True,False,True,False,True,True,False,False,False,40.6456878,140.8521402
平賀温泉郷,青森県,平川市,町居,,―,511,3,3,2,2,2,3,0,False,True,False,False,False,False,False,False,False,False,40.5797031,140.5597507
鉛温泉,岩手県,花巻市,鉛,,―,7370,3,3,3,3,2,3,1,True,False,False,False,True,False,False,False,False,False,39.4655417,140.9917488
沼尻温泉,福島県,猪苗代町,大字蚕養,,―,48,3,3,2,2,0,2,1,False,True,False,True,True,False,True,False,False,False,37.6177295,140.2290444
川場温泉,群馬県,川場村,大字川場湯原,,―,238,3,3,1,1,0,3,1,True,False,False,False,False,False,False,False,False,False,36.7125334875488,139.109024047852
礼文島温泉,北海道,礼文町,大字香深村,,―,193,2,2,2,2,0,2,1,False,True,False,False,False,True,False,False,False,False,45.30246,141.047437
斜里温泉,北海道,斜里町,港町,,―,1094,4,2,2,1,0,2,0,False,True,True,False,False,False,False,False,False,False,43.9074947,144.6596891
仁伏温泉,北海道,弟子屈町,字サワンチサップ,,―,203,2,2,1,2,0,2,0,True,False,False,False,False,False,False,False,False,False,43.64341,144.397387
然別湖温泉,北海道,鹿追町,字ウリマク,,―,431,2,2,2,2,0,2,0,False,True,True,False,False,False,False,False,False,False,43.273518,143.105559
岩内温泉,北海道,岩内町,字野束,http://www.town.iwanai.hokkaido.jp/?page_id=603,―,687,4,2,2,2,2,3,0,False,True,True,False,False,False,False,False,False,False,42.9539941,140.5059949
薬研温泉,青森県,むつ市,大畑町,http://ohatakanko.com,―,227,3,2,1,0,0,2,0,True,False,False,False,False,False,False,False,False,False,41.38207,141.06886
鯵ヶ沢温泉,青森県,鰺ヶ沢町,大字舞戸町,,―,673,2,2,2,2,0,2,0,False,True,False,False,False,False,False,False,False,False,40.7806849,140.2297642
巣郷温泉,岩手県,西和賀町,巣郷,,―,24,2,2,1,0,0,2,0,True,True,False,False,True,False,False,False,False,False,39.2758736,140.7189524
大滝温泉,秋田県,大館市,十二所,,―,89,3,2,2,0,0,2,0,False,True,False,False,False,True,False,False,False,False,不明,不明
湯瀬温泉,秋田県,鹿角市,八幡平,,―,483,4,2,2,1,1,2,0,True,False,False,True,False,False,False,False,False,False,40.1229097,140.8382992
森岳温泉,秋田県,三種町,森岳,,―,281,2,2,2,0,1,2,0,False,True,False,False,False,False,False,False,False,False,40.0880081,140.0911609
秋の宮温泉郷,秋田県,湯沢市,秋ノ宮,http://www.yuzawamarugoto.com/menu_04/akinomiyaonsenkyo/akinomiyaonsenkyo.html,―,298,7,2,2,2,1,2,0,False,True,False,True,False,False,False,False,False,False,38.9558106,140.5415155
高湯温泉,福島県,福島市,町庭坂,http://www.takayuonsen.jp/index.html,―,883,4,2,2,2,0,2,0,False,False,False,True,True,False,False,False,False,False,37.752041,140.304132
西山温泉,福島県,柳津町,大字砂子原,http://www.yanaidu.com/onsen/onsen.html,―,―,4,2,0,2,0,0,0,False,True,False,True,False,False,False,False,False,False,37.449057,139.697411
岩瀬湯本温泉,福島県,天栄村,大字湯本,,―,94,3,2,1,0,0,2,0,False,True,False,False,False,False,False,False,False,False,37.278712,139.991425
元湯温泉,栃木県,那須塩原市,湯本塩原,,―,665,2,2,2,1,0,2,0,False,True,True,True,False,False,False,False,False,False,36.967714,139.7582652
川原湯温泉,群馬県,長野原町,大字川原湯,http://www.kawarayu.jp,―,19,2,2,0,1,0,2,0,False,False,False,False,False,True,False,False,False,False,36.548298,138.704864
藪塚温泉,群馬県,太田市,藪塚町,,―,309,5,2,3,1,1,4,0,True,False,True,False,False,False,False,False,False,False,36.3627415,139.3181303
亀山温泉,千葉県,君津市,豊田旧菅間田,,―,341,2,2,1,1,0,2,0,False,True,True,False,False,False,False,False,False,False,35.228643,140.083788
西山温泉,山梨県,早川町,湯島,,―,657,2,2,2,1,1,2,1,False,True,False,False,False,True,False,False,False,False,35.554361,138.3060319
出湯温泉,新潟県,阿賀野市,出湯,,―,22,4,2,1,1,0,2,0,True,False,False,False,True,False,False,False,False,False,37.817756,139.300738
麒麟山温泉,新潟県,阿賀町,鹿瀬,,―,430,2,2,2,2,0,2,0,False,True,False,False,True,False,False,False,False,False,37.6839348,139.4675288
柵口温泉,新潟県,糸魚川市,大字田麦平,,―,156,3,2,1,1,1,2,0,True,True,True,False,False,False,False,False,False,False,37.039783,138.064888
清津峡温泉,新潟県,十日町市,小出,,―,62,3,2,2,1,0,2,0,False,True,False,True,False,False,False,False,False,False,36.995824,138.730823
二居温泉,新潟県,湯沢町,大字三国,,―,―,3,2,0,0,0,2,0,True,False,False,False,False,False,False,False,False,False,36.84581,138.779851
切明温泉,長野県,栄村,大字堺,http://sakae-akiyamago.com/soak/396/,―,60,2,2,1,2,0,1,0,False,True,False,False,False,True,False,False,False,False,36.8101954,138.6200789
松代温泉,長野県,長野市,松代町西寺尾,,―,1659,3,2,2,2,1,2,0,False,True,False,False,False,False,False,False,False,False,36.5683465,138.2108738
田沢温泉,長野県,青木村,大字田沢,,―,251,4,2,2,2,0,2,0,False,False,False,True,False,False,False,False,False,False,36.3694214,138.1060416
崖の湯温泉,長野県,松本市,大字内田,,―,50,4,2,1,1,0,2,0,False,False,True,False,False,True,False,False,False,False,36.15112,138.012559
毒沢鉱泉,長野県,下諏訪町,－,,―,178,2,2,1,0,1,2,0,False,False,False,False,True,False,True,False,False,False,36.095079,138.0823383
下條温泉,長野県,下條村,睦沢,http://shimojo-kanko.jp/onsen-higaeri.html,―,565,2,2,2,2,0,2,0,False,False,False,True,False,False,False,False,False,False,35.421103,137.801796
神通峡春日温泉,富山県,富山市,春日,,―,248,2,2,2,2,2,2,1,False,True,False,False,False,False,False,False,False,False,36.560514,137.203885
黒潮温泉,静岡県,焼津市,本町一丁目,,―,159,2,2,1,0,0,1,0,False,True,False,False,False,False,False,False,False,False,34.870046,138.322389
宇久須温泉,静岡県,西伊豆町,宇久須,,―,300,2,2,0,0,0,2,0,False,False,False,False,False,True,False,False,False,False,34.8498198,138.7773599
尾張温泉,愛知県,蟹江町,源氏三丁目,,―,414,2,2,2,1,0,2,0,True,False,False,False,False,False,False,False,False,False,35.132957,136.778891
山海温泉,愛知県,南知多町,大字山海,,―,883,3,2,2,3,1,3,1,False,True,False,False,False,False,False,False,False,False,34.7205325,136.8956311
下島温泉,岐阜県,下呂市,小坂町落合,,―,220,2,2,1,1,0,2,0,True,False,True,False,False,False,False,False,False,False,35.9207337,137.324417
鬼岩温泉,岐阜県,瑞浪市,日吉町,http://www.oniiwaonsen.com,―,400,2,2,2,1,1,2,0,True,False,False,False,True,True,False,False,False,False,35.4099756,137.1966987
犬鳴山温泉,大阪府,泉佐野市,大木,,―,357,4,2,3,3,1,3,0,False,False,False,True,False,False,False,False,False,False,34.342449,135.3743142
宝塚温泉,兵庫県,宝塚市,栄町二丁目,,―,1977,2,2,2,1,0,2,0,False,True,False,False,False,False,False,False,False,False,34.8098615,135.3407323
湯川温泉,和歌山県,那智勝浦町,大字湯川,,―,56,2,2,0,0,0,1,0,True,False,False,True,False,False,False,False,False,False,33.6171013,135.9270487
岩井温泉,鳥取県,岩美町,大字岩井,http://yukamuri.net,―,281,2,2,1,1,0,2,0,False,False,False,False,True,True,False,False,False,False,35.5551642,134.3623664
鹿野温泉,鳥取県,鳥取市,鹿野町今市,,―,459,2,2,2,2,0,2,0,True,False,False,False,False,False,False,False,False,False,35.4721663,134.0493035
三瓶温泉,島根県,大田市,三瓶町志学,,―,592,3,2,2,2,1,2,0,False,True,False,False,False,False,False,True,False,False,35.1152807,132.6235552
湯抱温泉,島根県,美郷町,湯抱,,―,―,3,2,0,0,0,2,0,False,True,True,False,False,False,False,False,False,False,不明,不明
有福温泉,島根県,江津市,有福温泉町,http://www.arifuku.net,―,236,2,2,2,1,0,2,1,True,False,False,False,False,False,False,False,False,False,34.9437313,132.2043303
脇田温泉,福岡県,宮若市,脇田,http://www.wakakanko.jp,―,513,6,2,2,2,2,2,0,True,False,False,False,False,False,False,False,False,False,33.692207,130.591428
船小屋温泉,福岡県,筑後市,大字尾島,http://www.funagoya.org,―,344,3,2,2,1,0,3,0,True,False,False,False,False,False,False,False,False,False,33.1807743,130.5010725
熊の川温泉,佐賀県,佐賀市,富士町大字上熊川,http://www.fuji-spa.com,―,89,2,2,1,0,0,2,0,False,False,False,False,True,True,False,False,False,False,33.3649483,130.2404344
九酔渓温泉,大分県,九重町,大字田野,http://kyusuikei.com,―,49,2,2,1,1,1,1,0,False,False,True,False,False,False,False,False,False,False,33.173366,131.2146078
山川温泉,熊本県,小国町,大字北里,,―,79,3,2,1,2,0,2,1,True,False,False,True,False,True,False,False,False,False,33.143548,131.12456
田の原温泉,熊本県,南小国町,大字満願寺,,―,69,2,2,1,2,0,1,0,False,True,True,False,True,False,False,False,False,False,33.08173,131.123664
湯之尾温泉,鹿児島県,伊佐市,菱刈川北,,―,55,5,2,1,2,0,2,0,False,True,True,False,False,False,False,False,False,False,31.985365,130.665449
宮之城温泉,鹿児島県,さつま町,湯田,,―,311,7,2,2,1,0,2,0,True,False,False,True,False,False,False,False,False,False,不明,不明
川内高城温泉,鹿児島県,薩摩川内市,湯田町,http://www.sendaitakionsen.com/onsen,―,33,6,2,1,0,1,2,0,False,False,False,True,False,False,False,False,False,False,31.9157434,130.2559537
安楽温泉,鹿児島県,霧島市,牧園町宿窪田,,―,342,5,2,2,1,0,2,0,False,False,True,False,False,False,False,False,False,False,31.8192086,130.7563392
市比野温泉,鹿児島県,薩摩川内市,樋脇町市比野,,―,175,5,2,2,1,1,2,0,True,False,False,False,False,True,False,False,False,False,31.7898819,130.404572
湯之元温泉,鹿児島県,日置市,東市来町湯田,,―,―,5,2,0,1,0,2,0,False,False,False,True,True,False,False,False,False,False,31.6698015,130.336139
鹿屋温泉,鹿児島県,鹿屋市,向江町,http://www.kanoya.in/onsen/,―,951,2,2,2,0,2,2,0,False,False,True,False,False,False,False,False,False,False,31.3835748,130.851845
うなぎ温泉,鹿児島県,指宿市,山川成川,,―,73,3,2,0,1,0,2,0,True,False,False,False,False,False,False,False,False,False,31.2247207,130.6115008
吉奈温泉,静岡県,伊豆市,吉奈,,―,839,2,2,2,2,0,2,2,True,False,False,False,False,False,False,False,False,False,34.9055992,138.9135534
浮島温泉,静岡県,西伊豆町,仁科,,―,95,2,2,1,1,0,2,0,False,True,False,False,False,False,False,False,False,False,34.794817,138.758284
浜村温泉,鳥取県,鳥取市,気高町勝見,,―,263,3,2,2,2,0,2,0,False,True,False,False,True,False,False,False,False,False,35.51069,134.051438
荒尾温泉,熊本県,荒尾市,本井手,http://arao.kumanomoto.com,―,1068,2,2,2,1,0,2,0,True,False,False,False,False,False,False,False,False,False,32.9882955,130.4697671
屈斜路湖畔温泉郷,北海道,弟子屈町,字サワンチサップ,,―,203,3,2,1,2,0,2,0,True,False,False,False,False,False,False,False,False,False,43.645404,144.3987222
ニセコ東山温泉,北海道,ニセコ町,字東山,,―,153,2,2,2,2,0,2,2,False,True,True,False,False,True,False,False,False,False,42.8465512,140.6760701
鹿部温泉,北海道,鹿部町,字鹿部,,―,39,4,2,3,1,0,3,0,False,True,False,False,False,True,False,False,False,False,42.0337685,140.8207331
寒河江温泉,山形県,寒河江市,元町一丁目,,―,370,2,2,2,1,0,2,0,True,True,True,False,False,False,False,False,False,False,38.371899,140.273256
奥鬼怒温泉郷,栃木県,日光市,川俣,,―,338,3,2,1,2,0,2,0,True,True,True,True,False,False,False,False,False,False,36.8725419,139.3986518
鷹の巣温泉,新潟県,関川村,大字湯沢,,―,253,2,2,2,2,0,2,1,False,True,False,False,False,True,False,False,False,False,38.0700428,139.5986581
上高地温泉,長野県,松本市,安曇,,―,422,3,2,3,2,0,3,2,True,False,False,False,False,False,False,False,False,False,36.248336,137.634469
旭温泉,島根県,浜田市,旭町木田,,―,906,3,2,2,2,0,2,0,True,False,False,False,False,False,False,False,False,False,34.8847735,132.2648954
玉川温泉,秋田県,仙北市,田沢湖玉川,https://www.tamagawa-onsen.jp/,―,1440,2,2,2,1,2,2,0,False,True,False,False,False,False,True,True,False,False,39.9604332,140.718607
岩尾別温泉,北海道,不明,不明,,―,61,1,1,1,1,0,1,0,False,True,True,False,False,False,False,False,False,False,不明,不明
女満別温泉,北海道,大空町,女満別湖畔三丁目,,―,123,2,1,1,1,1,1,0,True,False,False,False,False,False,False,False,False,False,43.915454,144.166179
標茶温泉,北海道,標茶町,桜八丁目,http://www.sip.or.jp/~kankou/stay/stay-top.html,―,127,2,1,1,1,0,1,0,True,False,False,False,False,False,False,False,False,False,43.289476,144.602418
盃温泉,北海道,泊村,大字興志内村,,―,65,2,1,0,1,0,1,0,False,False,False,False,False,False,False,False,False,False,43.10808,140.4540011
ニセコ湯本温泉,北海道,不明,不明,,―,209,1,1,1,1,0,1,0,False,False,False,True,False,False,False,False,False,False,不明,不明
蟠渓温泉,北海道,壮瞥町,字蟠溪,,―,59,2,1,1,1,0,1,0,False,True,False,False,True,True,False,False,False,False,42.5826414,141.0246328
網張温泉,岩手県,不明,不明,http://www.shizukuishi-kanko.gr.jp/hotspring03.php,―,309,1,1,1,1,0,1,0,False,False,False,True,False,False,False,False,False,False,不明,不明
平泉温泉,岩手県,不明,不明,,―,210,1,1,1,0,0,1,0,False,True,False,False,False,False,False,False,False,False,不明,不明
小原温泉,宮城県,白石市,小原,http://www.shiroishi.ne.jp/stay/accommodations.html,―,23,2,1,1,1,0,1,0,True,True,False,False,False,True,False,False,False,False,37.9828963,140.5618155
横向温泉,福島県,猪苗代町,大字若宮,,―,107,3,1,1,1,0,1,0,True,False,False,False,False,False,False,False,False,False,37.655974,140.254065
宮下温泉,福島県,不明,不明,,―,―,1,1,0,0,0,0,0,False,True,True,False,False,True,False,False,False,False,不明,不明
玉梨温泉,福島県,不明,不明,,―,62,1,1,1,1,0,1,0,False,True,True,False,False,False,False,False,False,False,不明,不明
母畑温泉,福島県,石川町,大字母畑,,―,410,4,1,1,1,1,1,0,True,False,False,False,False,False,False,False,False,False,37.1747019,140.4683045
湯ノ花温泉,福島県,南会津町,湯ノ花,,―,9,3,1,0,0,0,1,0,True,False,False,False,False,False,False,False,False,False,37.0684216,139.5274521
木賊温泉,福島県,南会津町,宮里,,―,―,2,1,0,0,0,1,0,True,False,False,False,False,False,False,False,False,False,37.0623619,139.4843645
湯岐温泉,福島県,塙町,大字湯岐,,―,166,2,1,1,0,0,1,0,True,False,False,False,False,False,False,False,False,False,36.8958588,140.4720085
喜連川温泉,栃木県,不明,不明,,―,241,1,1,1,1,0,1,0,False,False,False,False,False,False,False,False,False,False,不明,不明
飯山温泉,神奈川県,厚木市,飯山,,―,319,2,1,1,1,0,2,0,True,False,False,False,False,False,False,False,False,False,35.479218,139.304172
増富温泉,山梨県,北杜市,須玉町小尾,,―,15,5,1,0,0,0,1,0,False,True,True,True,True,False,False,False,True,False,35.865782,138.538568
寺泊海岸温泉,新潟県,長岡市,寺泊大町,,―,236,2,1,1,1,0,1,0,False,True,True,False,False,False,False,False,False,False,37.6428947,138.766989
御神楽温泉,新潟県,不明,不明,,―,60,1,1,1,1,0,1,0,False,False,True,False,False,False,False,False,False,False,不明,不明
西谷温泉,新潟県,長岡市,西谷,,―,184,2,1,0,0,0,1,0,False,False,False,True,False,False,False,False,False,False,37.358386,138.726516
奥山田温泉,長野県,不明,不明,http://shinshu-takayama-onsenkyo.com/hot_spring_facility/#okuyamada,―,5,1,1,1,0,0,1,0,False,False,False,True,False,False,False,False,False,False,不明,不明
牛岳温泉,富山県,不明,不明,,―,―,1,1,1,0,0,1,0,False,True,False,False,False,False,False,False,False,False,不明,不明
コンヤ温泉,静岡県,静岡市葵区,梅ヶ島,,―,86,2,1,0,1,0,1,0,False,False,False,True,False,False,False,False,False,False,35.267883,138.328058
畑毛温泉,静岡県,不明,不明,,―,56,1,1,1,1,0,1,0,True,False,False,False,False,False,False,False,False,False,不明,不明
船原温泉,静岡県,不明,不明,,―,41,1,1,1,1,0,1,0,True,False,False,False,False,False,False,False,False,False,不明,不明
大川温泉,静岡県,不明,不明,,―,511,1,1,1,1,0,1,1,False,True,False,False,False,True,False,False,False,False,不明,不明
大沢温泉,静岡県,松崎町,大澤,,―,12,2,1,0,0,0,1,0,False,False,False,False,False,True,False,False,False,False,34.7584255,138.8255355
馬瀬川温泉,岐阜県,不明,不明,,―,113,1,1,1,1,1,1,0,True,False,False,False,False,False,False,False,False,False,不明,不明
武田尾温泉,兵庫県,宝塚市,玉瀬,,―,235,2,1,1,1,0,1,1,False,False,False,False,True,False,False,False,False,False,34.8546904,135.3010854
あわくら温泉,岡山県,不明,不明,,―,6,1,1,1,0,0,1,0,False,False,False,False,False,True,False,False,False,False,不明,不明
関金温泉,鳥取県,倉吉市,関金町関金宿,,―,176,3,1,1,0,0,1,0,False,False,False,False,True,True,False,False,False,False,35.363858,133.763379
湯の山温泉,広島県,不明,不明,,―,6,1,1,0,0,0,1,0,False,False,False,False,True,False,False,False,False,False,不明,不明
湯ノ浦温泉,愛媛県,不明,不明,,―,1738,1,1,1,1,1,1,0,False,False,False,False,False,False,False,False,False,False,不明,不明
用井温泉,高知県,不明,不明,,―,309,1,1,1,0,1,1,0,True,False,False,False,False,False,False,False,False,False,不明,不明
博多温泉,福岡県,福岡市南区,三宅三丁目,,―,231,2,1,1,1,0,1,0,False,True,False,False,False,False,False,False,False,False,33.5486473,130.4320779
小地獄温泉,長崎県,雲仙市,小浜町雲仙,,―,343,3,1,1,1,0,1,0,False,False,False,True,False,False,False,False,False,False,32.732235,130.263055
龍門温泉,大分県,九重町,大字松木,,―,22,2,1,0,1,0,1,0,True,False,False,False,False,False,False,False,False,False,33.27003,131.203315
筌の口温泉,大分県,九重町,大字田野,http://www.kokonoe-k.com/spring06/,―,39,2,1,1,1,0,1,0,False,True,True,False,False,True,False,False,False,False,33.1637772,131.2255838
岳の湯温泉,熊本県,不明,不明,,―,16,1,1,1,1,0,1,0,True,False,False,False,False,False,False,False,False,False,不明,不明
満願寺温泉,熊本県,南小国町,大字満願寺,,―,―,3,1,0,1,0,1,0,True,False,False,False,False,False,False,False,False,False,33.075415,131.095716
白川温泉,熊本県,不明,不明,,―,249,1,1,1,1,0,1,0,False,False,False,True,True,False,False,False,False,False,不明,不明
菊鹿温泉,熊本県,山鹿市,菊鹿町池永,http://kikuka.jp,―,118,3,1,1,1,1,1,0,True,False,False,False,False,True,False,False,False,False,33.025526,130.779104
湯浦温泉,熊本県,不明,不明,,―,252,1,1,1,0,0,1,0,True,False,False,False,False,False,False,False,False,False,不明,不明
えびの高原温泉,宮崎県,不明,不明,,―,148,1,1,1,1,1,1,0,False,False,True,False,False,False,False,False,False,False,不明,不明
北郷温泉,宮崎県,不明,不明,,―,46,1,1,1,1,0,1,0,False,False,True,False,False,False,False,False,False,False,不明,不明
白根温泉,群馬県,不明,不明,,―,26,1,1,1,0,0,1,0,True,False,False,False,False,False,False,False,False,False,不明,不明
玉山温泉,福島県,不明,不明,,―,13,1,1,0,0,0,1,0,True,True,True,False,False,False,False,True,False,False,不明,不明
浜脇温泉,大分県,別府市,浜脇二丁目,,―,215,2,1,0,0,0,1,0,False,True,True,False,False,False,False,False,False,False,33.270159,131.506896
丸瀬布温泉,北海道,不明,不明,,―,228,1,1,1,1,0,1,1,True,False,False,False,False,False,False,False,False,False,不明,不明
形原温泉,愛知県,不明,不明,http://www.katahara-spa.jp/,―,58,1,1,1,1,0,1,0,True,False,False,False,False,False,False,False,False,False,不明,不明
強首温泉郷,秋田県,大仙市,強首,,―,81,3,1,2,1,0,2,0,False,True,False,False,False,False,False,False,False,False,39.5414587,140.2974539
大塩裏磐梯温泉,福島県,不明,不明,,―,205,1,1,1,1,0,1,0,False,False,False,False,False,False,False,False,False,False,不明,不明
池ノ湯温泉,北海道,不明,不明,,―,―,0,0,0,0,0,0,0,False,False,False,False,False,False,False,False,False,False,不明,不明
和琴温泉,北海道,不明,不明,,―,―,1,0,0,0,0,0,0,True,False,False,False,False,False,False,False,False,False,不明,不明
コタン温泉,北海道,不明,不明,,―,―,0,0,0,0,0,0,0,False,False,False,False,False,False,False,False,False,False,不明,不明
濁川温泉,北海道,森町,字濁川,,―,―,6,0,0,0,0,0,0,False,True,True,False,False,False,False,False,False,False,42.1220226,140.443836
湯野川温泉,青森県,むつ市,川内町,,―,―,2,0,0,0,0,0,0,True,False,False,False,False,False,False,False,False,False,41.316342,140.960006
湯段温泉,青森県,弘前市,大字常盤野,http://www.iwakisan.com/hot_spring/yudan.html,―,―,2,0,0,0,0,0,0,False,True,True,False,False,False,False,False,False,False,40.6272902624512,140.251495361328
国見温泉,岩手県,雫石町,橋場,http://www.shizukuishi-kanko.gr.jp/hotspring02.php,―,―,2,0,0,0,0,0,0,False,False,True,True,False,False,False,False,False,False,39.7271784,140.7933827
矢巾温泉,岩手県,矢巾町,大字煙山,,―,―,2,0,0,0,0,0,0,True,False,False,False,False,False,False,False,False,False,39.6194389,141.0808026
泥湯温泉,秋田県,不明,不明,,―,―,1,0,0,0,0,0,0,True,False,False,False,False,False,True,False,False,False,不明,不明
岩蔵温泉,東京都,青梅市,小曾木五丁目,http://iwakuraonsen.jp/index-p.html,―,―,2,0,0,0,0,0,0,False,False,False,False,False,False,False,False,False,False,35.825706,139.289756
鶴巻温泉,神奈川県,秦野市,鶴巻北二丁目,,―,―,2,0,0,0,0,0,0,False,True,False,False,False,False,False,False,False,False,35.382596,139.276333
底倉温泉,神奈川県,不明,不明,,―,―,1,0,0,0,0,0,0,False,True,False,False,False,False,False,False,False,False,不明,不明
二ノ平温泉,神奈川県,箱根町,小涌谷,,―,―,2,0,0,0,0,0,0,False,True,True,False,False,True,False,False,False,False,35.241744,139.049629
奈良田温泉,山梨県,不明,不明,,―,―,0,0,0,0,0,0,0,False,False,False,False,False,False,False,False,False,False,不明,不明
道志温泉,山梨県,不明,不明,,―,―,1,0,0,0,0,0,0,False,False,False,False,False,False,True,False,False,False,不明,不明
湯沢温泉,新潟県,関川村,大字湯沢,http://www.sekikawa-onsen.com/yusawa/,―,―,3,0,0,0,0,0,0,True,False,False,False,False,False,False,False,False,False,38.0955872,139.5770468
浦佐温泉,新潟県,南魚沼市,浦佐,,―,―,2,0,0,0,0,0,0,False,True,False,False,False,True,False,False,False,False,37.1636228,138.9174319
小谷温泉,長野県,小谷村,大字中土,http://www.vill.otari.nagano.jp/kanko/accommodations/otarionsen/,―,―,3,0,0,0,0,0,0,False,False,True,False,False,False,False,False,False,False,36.8677809,137.9853128
接岨峡温泉,静岡県,不明,不明,http://www.okuooi.gr.jp/wordpress/onsen/o_sessokyo/,―,―,0,0,0,0,0,0,0,False,False,False,False,False,False,False,False,False,False,不明,不明
千頭温泉,静岡県,不明,不明,http://www.okuooi.gr.jp/wordpress/onsen/o_senzu/,―,―,0,0,0,0,0,0,0,False,False,False,False,False,False,False,False,False,False,不明,不明
笹戸温泉,愛知県,豊田市,平畑町,,―,―,2,0,0,0,0,0,0,False,False,False,False,True,False,False,False,False,False,35.2205628,137.3249794
出石温泉,兵庫県,不明,不明,,―,―,0,0,0,0,0,0,0,False,False,False,False,False,False,False,False,False,False,不明,不明
湯来温泉,広島県,広島市佐伯区,湯来町大字多田,,―,97,2,0,1,1,0,1,0,False,False,False,False,False,False,False,False,False,False,34.4770091,132.2415997
大河内温泉,山口県,不明,不明,,―,―,1,0,0,0,0,0,0,False,False,False,False,False,False,False,False,False,False,不明,不明
三丘温泉,山口県,不明,不明,,―,―,1,0,0,0,0,0,0,False,False,False,False,False,False,False,False,False,False,不明,不明
星乃岡温泉,愛媛県,不明,不明,http://hoshinooka.net/,―,―,1,0,0,0,0,0,0,True,False,False,False,False,False,False,False,False,False,不明,不明
薬王寺温泉,福岡県,不明,不明,,―,―,1,0,0,0,0,0,0,False,False,False,False,True,False,False,False,False,False,不明,不明
三加和温泉,熊本県,不明,不明,,―,―,0,0,0,0,0,0,0,False,False,False,False,False,False,False,False,False,False,不明,不明
阿久根温泉,鹿児島県,阿久根市,港町,http://akune-kankourenmi.jimdo.com/,―,―,2,0,0,0,0,0,0,True,False,False,False,False,False,False,False,False,False,32.0153987,130.1943824
入来温泉,鹿児島県,不明,不明,,―,―,0,0,0,0,0,0,0,False,False,False,False,False,False,False,False,False,False,不明,不明
藺牟田温泉,鹿児島県,薩摩川内市,祁答院町藺牟田,,―,―,2,0,0,0,0,0,0,True,False,False,False,False,False,False,False,False,False,31.8004406,130.480946
海潟温泉,鹿児島県,不明,不明,,―,―,1,0,0,0,0,0,0,False,False,False,True,False,False,False,False,False,False,不明,不明
七味温泉,長野県,高山村,大字奥山田,http://shinshu-takayama-onsenkyo.com/hot_spring_facility/#sichimi,―,―,3,0,0,0,0,0,0,False,True,False,True,False,True,False,False,False,False,36.659242,138.472392
柴石温泉,大分県,不明,不明,,―,―,1,0,0,0,0,0,0,True,True,False,False,False,True,False,False,False,False,不明,不明
川汲温泉,北海道,不明,不明,,―,―,1,0,0,0,0,0,0,True,False,False,False,False,False,False,False,False,False,不明,不明
山の神温泉,岩手県,不明,不明,,―,―,0,0,0,0,0,0,0,False,False,False,False,False,False,False,False,False,False,不明,不明
沓掛温泉,長野県,不明,不明,,―,―,0,0,0,0,0,0,0,False,False,False,False,False,False,False,False,False,False,不明,不明
